read_at,millis,count,Yaw(deg),Pitch(deg),Roll(deg),ax(mg),ay(mg),az(mg),target_name
2024-06-04 18:57:25.543815,56744,5210,30.3,4.8,90.4,-1.0003,0.0867,-0.0094,idle
2024-06-04 18:57:25.553815,56744,5211,30.3,4.8,90.4,-0.9945,0.0916,-0.0089,idle
2024-06-04 18:57:25.563815,56752,5212,30.3,4.8,90.4,-0.9974,0.0877,-0.007,idle
2024-06-04 18:57:25.573815,56752,5213,30.3,4.8,90.4,-1.0091,0.0794,-0.005,idle
2024-06-04 18:57:25.583815,56752,5214,30.3,4.8,90.4,-1.0174,0.0726,-0.0036,idle
2024-06-04 18:57:25.593815,56752,5215,30.3,4.8,90.4,-1.014,0.0687,-0.0031,idle
2024-06-04 18:57:25.603815,56752,5216,30.3,4.8,90.4,-1.0101,0.0628,-0.0036,idle
2024-06-04 18:57:25.613815,56752,5217,30.3,4.8,90.4,-1.0111,0.0618,-0.004,idle
2024-06-04 18:57:25.623815,56752,5218,30.3,4.8,90.4,-1.0106,0.0692,-0.0036,idle
2024-06-04 18:57:25.633815,56760,5219,30.3,4.7,90.4,-1.0106,0.0784,-0.0036,idle
2024-06-04 18:57:25.643815,56760,5220,30.3,4.8,90.4,-1.0076,0.0877,-0.0055,idle
2024-06-04 18:57:25.653815,56760,5221,30.3,4.8,90.4,-1.0032,0.0901,-0.0075,idle
2024-06-04 18:57:25.663815,56760,5222,30.3,4.8,90.4,-1.0013,0.0858,-0.0079,idle
2024-06-04 18:57:25.673815,56872,5223,30.4,4.7,90.3,-1.0023,0.0833,-0.0079,idle
2024-06-04 18:57:25.683815,56872,5224,30.4,4.7,90.3,-1.0052,0.0828,-0.0079,idle
2024-06-04 18:57:25.693815,56872,5225,30.4,4.7,90.3,-1.0076,0.0838,-0.0079,idle
2024-06-04 18:57:25.703815,56872,5226,30.4,4.7,90.3,-1.0101,0.0794,-0.0079,idle
2024-06-04 18:57:25.713815,56880,5227,30.4,4.7,90.3,-1.012,0.0745,-0.0084,idle
2024-06-04 18:57:25.723815,56880,5228,30.4,4.7,90.3,-1.0106,0.076,-0.0079,idle
2024-06-04 18:57:25.733815,56880,5229,30.4,4.7,90.4,-1.0072,0.0799,-0.007,idle
2024-06-04 18:57:25.743815,56880,5230,30.4,4.7,90.4,-1.0032,0.0858,-0.007,idle
2024-06-04 18:57:25.753815,56880,5231,30.4,4.7,90.3,-1.0013,0.0843,-0.0079,idle
2024-06-04 18:57:25.763815,56880,5232,30.4,4.7,90.4,-1.0023,0.076,-0.0084,idle
2024-06-04 18:57:25.773815,56880,5233,30.4,4.7,90.4,-1.0023,0.076,-0.0079,idle
2024-06-04 18:57:25.783815,56888,5234,30.4,4.7,90.4,-1.0047,0.0799,-0.0065,idle
2024-06-04 18:57:25.793815,56888,5235,30.4,4.7,90.4,-1.0072,0.0838,-0.0065,idle
2024-06-04 18:57:25.803815,57000,5236,30.4,4.8,90.3,-1.0062,0.0877,-0.0065,idle
2024-06-04 18:57:25.813815,57000,5237,30.4,4.8,90.3,-1.0037,0.0901,-0.0065,idle
2024-06-04 18:57:25.823815,57000,5238,30.4,4.8,90.3,-1.0018,0.0867,-0.0065,idle
2024-06-04 18:57:25.833815,57000,5239,30.4,4.8,90.3,-1.0028,0.0799,-0.0075,idle
2024-06-04 18:57:25.843815,57000,5240,30.4,4.8,90.3,-1.0023,0.0799,-0.0079,idle
2024-06-04 18:57:25.853815,57000,5241,30.4,4.8,90.3,-1.0013,0.0848,-0.0079,idle
2024-06-04 18:57:25.863815,57000,5242,30.4,4.8,90.3,-1.0047,0.0887,-0.0079,idle
2024-06-04 18:57:25.873815,57008,5243,30.4,4.8,90.3,-1.0101,0.0901,-0.0075,idle
2024-06-04 18:57:25.883815,57008,5244,30.4,4.8,90.3,-1.012,0.0887,-0.0065,idle
2024-06-04 18:57:25.893815,57008,5245,30.4,4.8,90.3,-1.0096,0.0784,-0.0055,idle
2024-06-04 18:57:25.903815,57008,5246,30.4,4.8,90.3,-1.0062,0.0667,-0.0045,idle
2024-06-04 18:57:25.913815,57008,5247,30.4,4.8,90.3,-1.0067,0.0604,-0.0026,idle
2024-06-04 18:57:25.923815,57008,5248,30.4,4.8,90.3,-1.0091,0.0599,-0.0016,idle
2024-06-04 18:57:25.933815,57120,5249,30.4,4.2,90.2,-1.0125,0.0613,-0.0011,idle
2024-06-04 18:57:25.943815,57120,5250,30.4,4.2,90.2,-1.0155,0.0652,-0.0001,idle
2024-06-04 18:57:25.953815,57120,5251,30.4,4.2,90.2,-1.013,0.0735,-0.0006,idle
2024-06-04 18:57:25.963815,57128,5252,30.4,4.2,90.2,-1.0101,0.0804,-0.0021,idle
2024-06-04 18:57:25.973815,57128,5253,30.4,4.2,90.2,-1.0081,0.0848,-0.0036,idle
2024-06-04 18:57:25.983815,57128,5254,30.4,4.2,90.2,-1.0072,0.0877,-0.006,idle
2024-06-04 18:57:25.993815,57128,5255,30.4,4.3,90.2,-1.0067,0.0892,-0.0089,idle
2024-06-04 18:57:26.003815,57128,5256,30.4,4.3,90.2,-1.0067,0.0892,-0.0114,idle
2024-06-04 18:57:26.013815,57128,5257,30.4,4.3,90.2,-1.0047,0.0887,-0.0114,idle
2024-06-04 18:57:26.023815,57136,5258,30.4,4.3,90.2,-1.0032,0.0872,-0.0104,idle
2024-06-04 18:57:26.033815,57136,5259,30.4,4.3,90.2,-1.0037,0.0853,-0.0084,idle
2024-06-04 18:57:26.043815,57136,5260,30.4,4.3,90.2,-1.0047,0.0843,-0.0075,idle
2024-06-04 18:57:26.053815,57136,5261,30.4,4.3,90.2,-1.0052,0.0833,-0.0065,idle
2024-06-04 18:57:26.063815,57248,5262,30.4,4.4,90.2,-1.0028,0.0823,-0.006,idle
2024-06-04 18:57:26.073815,57248,5263,30.4,4.4,90.2,-0.9993,0.0843,-0.006,idle
2024-06-04 18:57:26.083815,57248,5264,30.4,4.4,90.2,-1.0008,0.0877,-0.0055,idle
2024-06-04 18:57:26.093815,57248,5265,30.5,4.4,90.2,-1.0057,0.0838,-0.0065,idle
2024-06-04 18:57:26.103815,57248,5266,30.5,4.4,90.2,-1.0111,0.0696,-0.007,idle
2024-06-04 18:57:26.113815,57256,5267,30.5,4.4,90.2,-1.012,0.0613,-0.0055,idle
2024-06-04 18:57:26.123815,57256,5268,30.5,4.4,90.3,-1.0106,0.0667,-0.005,idle
2024-06-04 18:57:26.133815,57256,5269,30.4,4.4,90.3,-1.0106,0.0735,-0.005,idle
2024-06-04 18:57:26.143815,57256,5270,30.4,4.4,90.3,-1.0101,0.0823,-0.0055,idle
2024-06-04 18:57:26.153815,57256,5271,30.5,4.4,90.3,-1.0037,0.0882,-0.005,idle
2024-06-04 18:57:26.163815,57256,5272,30.5,4.4,90.3,-0.9979,0.0877,-0.005,idle
2024-06-04 18:57:26.173815,57256,5273,30.5,4.4,90.3,-1.0008,0.0838,-0.007,idle
2024-06-04 18:57:26.183815,57264,5274,30.5,4.4,90.3,-1.0018,0.0843,-0.0089,idle
2024-06-04 18:57:26.193815,57368,5275,30.6,4.7,90.3,-1.0013,0.0877,-0.0099,idle
2024-06-04 18:57:26.203815,57376,5276,30.6,4.7,90.3,-1.0042,0.0877,-0.0094,idle
2024-06-04 18:57:26.213815,57376,5277,30.6,4.7,90.3,-1.0072,0.0867,-0.0079,idle
2024-06-04 18:57:26.223815,57376,5278,30.6,4.7,90.3,-1.0081,0.0823,-0.0075,idle
2024-06-04 18:57:26.233815,57376,5279,30.6,4.7,90.3,-1.0057,0.0735,-0.0075,idle
2024-06-04 18:57:26.243815,57376,5280,30.6,4.7,90.3,-1.0023,0.0687,-0.0079,idle
2024-06-04 18:57:26.253815,57376,5281,30.6,4.7,90.3,-1.0023,0.0682,-0.0075,idle
2024-06-04 18:57:26.263815,57384,5282,30.6,4.7,90.3,-1.0081,0.0648,-0.0055,idle
2024-06-04 18:57:26.273815,57384,5283,30.6,4.7,90.3,-1.0155,0.0599,-0.0036,idle
2024-06-04 18:57:26.283815,57384,5284,30.6,4.7,90.3,-1.0174,0.0623,-0.0036,idle
2024-06-04 18:57:26.293815,57384,5285,30.6,4.7,90.3,-1.0145,0.0701,-0.0045,idle
2024-06-04 18:57:26.303815,57384,5286,30.6,4.7,90.3,-1.013,0.0765,-0.006,idle
2024-06-04 18:57:26.313815,57384,5287,30.6,4.7,90.3,-1.0091,0.0823,-0.0075,idle
2024-06-04 18:57:26.323815,57496,5288,30.5,4.8,90.4,-1.0023,0.0901,-0.0084,idle
2024-06-04 18:57:26.333815,57496,5289,30.5,4.8,90.4,-0.9993,0.0931,-0.0104,idle
2024-06-04 18:57:26.343815,57496,5290,30.5,4.8,90.4,-1.0023,0.0858,-0.0114,idle
2024-06-04 18:57:26.353815,57504,5291,30.5,4.8,90.4,-1.0042,0.0789,-0.0099,idle
2024-06-04 18:57:26.363815,57504,5292,30.5,4.8,90.4,-1.0062,0.0789,-0.0089,idle
2024-06-04 18:57:26.373815,57504,5293,30.5,4.8,90.4,-1.0101,0.0799,-0.0084,idle
2024-06-04 18:57:26.383815,57504,5294,30.5,4.8,90.4,-1.014,0.0755,-0.0075,idle
2024-06-04 18:57:26.393815,57504,5295,30.5,4.8,90.4,-1.013,0.0721,-0.0065,idle
2024-06-04 18:57:26.403815,57504,5296,30.5,4.8,90.4,-1.0057,0.075,-0.0065,idle
2024-06-04 18:57:26.413815,57504,5297,30.5,4.8,90.4,-1.0018,0.0784,-0.0065,idle
2024-06-04 18:57:26.423815,57512,5298,30.5,4.8,90.4,-1.0023,0.0794,-0.0065,idle
2024-06-04 18:57:26.433815,57512,5299,30.5,4.8,90.4,-1.0057,0.074,-0.0055,idle
2024-06-04 18:57:26.443815,57512,5300,30.5,4.8,90.4,-1.0101,0.0677,-0.004,idle
2024-06-04 18:57:26.453815,57624,5301,30.4,4.4,90.3,-1.0106,0.0687,-0.0045,idle
2024-06-04 18:57:26.463815,57624,5302,30.4,4.4,90.3,-1.0052,0.0745,-0.007,idle
2024-06-04 18:57:26.473815,57624,5303,30.4,4.4,90.3,-0.9993,0.0814,-0.0089,idle
2024-06-04 18:57:26.483815,57624,5304,30.4,4.4,90.3,-0.9979,0.0848,-0.0099,idle
2024-06-04 18:57:26.493815,57624,5305,30.4,4.4,90.3,-1.0037,0.0818,-0.0094,idle
2024-06-04 18:57:26.503815,57632,5306,30.4,4.4,90.3,-1.0086,0.0804,-0.0075,idle
2024-06-04 18:57:26.513815,57632,5307,30.4,4.4,90.3,-1.0091,0.0828,-0.0065,idle
2024-06-04 18:57:26.523815,57632,5308,30.4,4.4,90.3,-1.0086,0.0809,-0.007,idle
2024-06-04 18:57:26.533815,57632,5309,30.4,4.4,90.3,-1.0081,0.0696,-0.0065,idle
2024-06-04 18:57:26.543815,57632,5310,30.4,4.4,90.3,-1.0111,0.0618,-0.006,idle
2024-06-04 18:57:26.553815,57632,5311,30.4,4.4,90.3,-1.014,0.0643,-0.0055,idle
2024-06-04 18:57:26.563815,57632,5312,30.4,4.4,90.3,-1.015,0.0682,-0.0065,idle
2024-06-04 18:57:26.573815,57744,5313,30.4,4.4,90.3,-1.0106,0.0726,-0.0079,idle
2024-06-04 18:57:26.583815,57744,5314,30.4,4.3,90.4,-1.0067,0.074,-0.0079,idle
2024-06-04 18:57:26.593815,57752,5315,30.4,4.3,90.4,-1.0042,0.076,-0.0075,idle
2024-06-04 18:57:26.603815,57752,5316,30.4,4.3,90.4,-1.0028,0.0818,-0.007,idle
2024-06-04 18:57:26.613815,57752,5317,30.4,4.3,90.4,-1.0023,0.0848,-0.0075,idle
2024-06-04 18:57:26.623815,57752,5318,30.4,4.3,90.4,-1.0032,0.0818,-0.0079,idle
2024-06-04 18:57:26.633815,57752,5319,30.4,4.3,90.4,-1.0052,0.076,-0.0084,idle
2024-06-04 18:57:26.643815,57752,5320,30.4,4.3,90.4,-1.0076,0.0735,-0.0084,idle
2024-06-04 18:57:26.653815,57752,5321,30.4,4.3,90.4,-1.0096,0.0765,-0.0094,idle
2024-06-04 18:57:26.663815,57760,5322,30.4,4.3,90.4,-1.0086,0.0799,-0.0104,idle
2024-06-04 18:57:26.673815,57760,5323,30.4,4.3,90.4,-1.0067,0.0775,-0.0114,idle
2024-06-04 18:57:26.683815,57760,5324,30.4,4.3,90.4,-1.0057,0.0735,-0.0109,idle
2024-06-04 18:57:26.693815,57760,5325,30.4,4.3,90.4,-1.0062,0.0765,-0.0089,idle
2024-06-04 18:57:26.703815,57872,5326,30.4,4.5,90.4,-1.0081,0.0823,-0.0079,idle
2024-06-04 18:57:26.713815,57872,5327,30.4,4.5,90.4,-1.0081,0.0784,-0.0084,idle
2024-06-04 18:57:26.723815,57872,5328,30.4,4.5,90.4,-1.0081,0.0662,-0.0084,idle
2024-06-04 18:57:26.733815,57872,5329,30.4,4.5,90.4,-1.0164,0.0672,-0.0099,idle
2024-06-04 18:57:26.743815,57880,5330,30.4,4.5,90.4,-1.014,0.075,-0.0094,idle
2024-06-04 18:57:26.753815,57880,5331,30.4,4.5,90.5,-1.0067,0.0789,-0.0079,idle
2024-06-04 18:57:26.763815,57880,5332,30.4,4.5,90.5,-1.0052,0.0833,-0.0094,idle
2024-06-04 18:57:26.773815,57880,5333,30.4,4.5,90.5,-1.0018,0.0848,-0.0109,idle
2024-06-04 18:57:26.783815,57880,5334,30.4,4.5,90.5,-0.9998,0.0858,-0.0114,idle
2024-06-04 18:57:26.793815,57880,5335,30.4,4.5,90.5,-0.9998,0.0867,-0.0109,idle
2024-06-04 18:57:26.803815,57880,5336,30.4,4.5,90.5,-1.0028,0.0848,-0.0099,idle
2024-06-04 18:57:26.813815,57888,5337,30.4,4.5,90.5,-1.0062,0.0735,-0.0104,idle
2024-06-04 18:57:26.823815,57888,5338,30.4,4.5,90.5,-1.0076,0.0584,-0.0119,idle
2024-06-04 18:57:26.833815,58000,5339,30.3,3.9,90.6,-1.0062,0.0618,-0.0128,idle
2024-06-04 18:57:26.843815,58000,5340,30.3,3.9,90.6,-1.0057,0.075,-0.0143,idle
2024-06-04 18:57:26.853815,58000,5341,30.3,4.0,90.6,-1.0101,0.0809,-0.0153,idle
2024-06-04 18:57:26.863815,58000,5342,30.3,4.0,90.6,-1.0101,0.0818,-0.0153,idle
2024-06-04 18:57:26.873815,58000,5343,30.3,4.0,90.6,-1.0057,0.0799,-0.0138,idle
2024-06-04 18:57:26.883815,58000,5344,30.3,4.0,90.6,-1.0023,0.0823,-0.0128,idle
2024-06-04 18:57:26.893815,58000,5345,30.3,4.0,90.6,-1.0013,0.0828,-0.0119,idle
2024-06-04 18:57:26.903815,58008,5346,30.3,4.0,90.6,-1.0037,0.0789,-0.0104,idle
2024-06-04 18:57:26.913815,58008,5347,30.3,4.0,90.6,-1.0076,0.0765,-0.0094,idle
2024-06-04 18:57:26.923815,58008,5348,30.3,4.0,90.6,-1.0106,0.0731,-0.0089,idle
2024-06-04 18:57:26.933815,58008,5349,30.3,4.0,90.6,-1.0101,0.0692,-0.0094,idle
2024-06-04 18:57:26.943815,58008,5350,30.3,4.0,90.6,-1.0062,0.0701,-0.0109,idle
2024-06-04 18:57:26.953815,58008,5351,30.3,4.0,90.6,-1.0037,0.076,-0.0123,idle
2024-06-04 18:57:26.963815,58120,5352,30.3,4.2,90.6,-1.0047,0.0794,-0.0138,idle
2024-06-04 18:57:26.973815,58120,5353,30.3,4.2,90.6,-1.0047,0.0765,-0.0143,idle
2024-06-04 18:57:26.983815,58120,5354,30.3,4.2,90.6,-1.0028,0.075,-0.0138,idle
2024-06-04 18:57:26.993815,58128,5355,30.3,4.2,90.6,-1.0032,0.076,-0.0123,idle
2024-06-04 18:57:27.003815,58128,5356,30.3,4.2,90.6,-1.0057,0.0735,-0.0104,idle
2024-06-04 18:57:27.013815,58128,5357,30.3,4.2,90.6,-1.0081,0.0711,-0.0089,idle
2024-06-04 18:57:27.023815,58128,5358,30.3,4.2,90.6,-1.0106,0.0716,-0.0084,idle
2024-06-04 18:57:27.033815,58128,5359,30.3,4.2,90.6,-1.0125,0.0696,-0.0089,idle
2024-06-04 18:57:27.043815,58128,5360,30.3,4.2,90.6,-1.0111,0.0677,-0.0094,idle
2024-06-04 18:57:27.053815,58136,5361,30.3,4.2,90.6,-1.0052,0.0696,-0.0099,idle
2024-06-04 18:57:27.063815,58136,5362,30.3,4.2,90.6,-0.9993,0.0692,-0.0094,idle
2024-06-04 18:57:27.073815,58136,5363,30.3,4.2,90.6,-1.0013,0.075,-0.0104,idle
2024-06-04 18:57:27.083815,58136,5364,30.3,4.2,90.6,-1.0047,0.0823,-0.0114,idle
2024-06-04 18:57:27.093815,58248,5365,30.4,4.4,90.6,-1.0057,0.0828,-0.0123,idle
2024-06-04 18:57:27.103815,58248,5366,30.4,4.4,90.6,-1.0101,0.0765,-0.0119,idle
2024-06-04 18:57:27.113815,58248,5367,30.4,4.4,90.6,-1.0135,0.0672,-0.0104,idle
2024-06-04 18:57:27.123815,58248,5368,30.4,4.4,90.6,-1.0125,0.0662,-0.0099,idle
2024-06-04 18:57:27.133815,58248,5369,30.4,4.4,90.6,-1.0101,0.0721,-0.0109,idle
2024-06-04 18:57:27.143815,58256,5370,30.4,4.4,90.6,-1.0062,0.077,-0.0114,idle
2024-06-04 18:57:27.153815,58256,5371,30.4,4.4,90.6,-1.0057,0.074,-0.0109,idle
2024-06-04 18:57:27.163815,58256,5372,30.4,4.4,90.6,-1.0062,0.0662,-0.0099,idle
2024-06-04 18:57:27.173815,58256,5373,30.4,4.4,90.6,-1.0057,0.0652,-0.0099,idle
2024-06-04 18:57:27.183815,58256,5374,30.4,4.4,90.6,-1.0052,0.0701,-0.0104,idle
2024-06-04 18:57:27.193815,58256,5375,30.4,4.4,90.6,-1.0037,0.0735,-0.0104,idle
2024-06-04 18:57:27.203815,58256,5376,30.4,4.4,90.6,-1.0037,0.0745,-0.0104,idle
2024-06-04 18:57:27.213815,58264,5377,30.4,4.4,90.6,-1.0052,0.0726,-0.0109,idle
2024-06-04 18:57:27.223815,58368,5378,30.5,4.3,90.6,-1.0042,0.074,-0.0114,idle
2024-06-04 18:57:27.233815,58376,5379,30.5,4.3,90.6,-1.0042,0.077,-0.0109,idle
2024-06-04 18:57:27.243815,58376,5380,30.5,4.3,90.6,-1.0076,0.077,-0.0099,idle
2024-06-04 18:57:27.253815,58376,5381,30.5,4.3,90.6,-1.0081,0.0745,-0.0094,idle
2024-06-04 18:57:27.263815,58376,5382,30.5,4.3,90.6,-1.0042,0.0726,-0.0099,idle
2024-06-04 18:57:27.273815,58376,5383,30.5,4.3,90.6,-1.0013,0.0765,-0.0109,idle
2024-06-04 18:57:27.283815,58376,5384,30.5,4.3,90.6,-1.0028,0.0794,-0.0114,idle
2024-06-04 18:57:27.293815,58384,5385,30.5,4.3,90.6,-1.0072,0.0731,-0.0104,idle
2024-06-04 18:57:27.303815,58384,5386,30.5,4.3,90.6,-1.0116,0.0657,-0.0089,idle
2024-06-04 18:57:27.313815,58384,5387,30.5,4.3,90.6,-1.0125,0.0652,-0.0084,idle
2024-06-04 18:57:27.323815,58384,5388,30.5,4.2,90.6,-1.0086,0.0687,-0.0084,idle
2024-06-04 18:57:27.333815,58384,5389,30.5,4.2,90.6,-1.0062,0.0696,-0.0079,idle
2024-06-04 18:57:27.343815,58384,5390,30.5,4.2,90.6,-1.0072,0.0682,-0.0079,idle
2024-06-04 18:57:27.353815,58496,5391,30.4,4.1,90.5,-1.0052,0.0706,-0.0075,idle
2024-06-04 18:57:27.363815,58496,5392,30.4,4.1,90.5,-1.0052,0.075,-0.0079,idle
2024-06-04 18:57:27.373815,58496,5393,30.4,4.1,90.5,-1.0052,0.0765,-0.0079,idle
2024-06-04 18:57:27.383815,58504,5394,30.4,4.1,90.5,-1.0037,0.0755,-0.0075,idle
2024-06-04 18:57:27.393815,58504,5395,30.4,4.1,90.5,-1.0052,0.0726,-0.0079,idle
2024-06-04 18:57:27.403815,58504,5396,30.4,4.1,90.5,-1.0067,0.0711,-0.0084,idle
2024-06-04 18:57:27.413815,58504,5397,30.4,4.1,90.5,-1.0052,0.0701,-0.0094,idle
2024-06-04 18:57:27.423815,58504,5398,30.4,4.1,90.5,-1.0047,0.0696,-0.0094,idle
2024-06-04 18:57:27.433815,58504,5399,30.4,4.1,90.5,-1.0072,0.0696,-0.0079,idle
2024-06-04 18:57:27.443815,58504,5400,30.4,4.1,90.5,-1.0096,0.0682,-0.007,idle
2024-06-04 18:57:27.453815,58512,5401,30.4,4.1,90.5,-1.0096,0.0701,-0.007,idle
2024-06-04 18:57:27.463815,58512,5402,30.4,4.1,90.5,-1.0072,0.0721,-0.0075,idle
2024-06-04 18:57:27.473815,58512,5403,30.4,4.1,90.5,-1.0076,0.0692,-0.0084,idle
2024-06-04 18:57:27.483815,58624,5404,30.4,3.9,90.5,-1.0086,0.0657,-0.0089,idle
2024-06-04 18:57:27.493815,58624,5405,30.4,3.9,90.5,-1.0101,0.0667,-0.0089,idle
2024-06-04 18:57:27.503815,58624,5406,30.4,3.9,90.5,-1.0091,0.0711,-0.0089,idle
2024-06-04 18:57:27.513815,58624,5407,30.4,3.9,90.5,-1.0042,0.077,-0.0084,idle
2024-06-04 18:57:27.523815,58624,5408,30.4,3.9,90.5,-0.9989,0.0779,-0.0079,idle
2024-06-04 18:57:27.533815,58632,5409,30.4,3.9,90.5,-0.9984,0.0765,-0.0079,idle
2024-06-04 18:57:27.543815,58632,5410,30.4,3.9,90.5,-1.0028,0.0755,-0.0084,idle
2024-06-04 18:57:27.553815,58632,5411,30.4,3.9,90.5,-1.0067,0.075,-0.0084,idle
2024-06-04 18:57:27.563815,58632,5412,30.4,3.9,90.5,-1.0101,0.0716,-0.0079,idle
2024-06-04 18:57:27.573815,58632,5413,30.4,3.9,90.5,-1.0116,0.0657,-0.007,idle
2024-06-04 18:57:27.583815,58632,5414,30.4,3.9,90.5,-1.0101,0.0638,-0.0055,idle
2024-06-04 18:57:27.593815,58632,5415,30.4,3.9,90.5,-1.0081,0.0667,-0.0055,idle
2024-06-04 18:57:27.603815,58744,5416,30.4,3.9,90.5,-1.0062,0.0701,-0.0065,idle
2024-06-04 18:57:27.613815,58744,5417,30.4,4.0,90.4,-1.0057,0.0726,-0.0075,idle
2024-06-04 18:57:27.623815,58752,5418,30.4,4.0,90.4,-1.0072,0.0721,-0.0079,idle
2024-06-04 18:57:27.633815,58752,5419,30.4,4.0,90.4,-1.0062,0.0716,-0.0075,idle
2024-06-04 18:57:27.643815,58752,5420,30.4,4.1,90.4,-1.0037,0.0745,-0.0084,idle
2024-06-04 18:57:27.653815,58752,5421,30.4,4.1,90.4,-1.0028,0.077,-0.0104,idle
2024-06-04 18:57:27.663815,58752,5422,30.4,4.1,90.4,-1.0023,0.0779,-0.0109,idle
2024-06-04 18:57:27.673815,58752,5423,30.4,4.1,90.4,-1.0037,0.0765,-0.0099,idle
2024-06-04 18:57:27.683815,58752,5424,30.4,4.1,90.4,-1.0062,0.075,-0.0089,idle
2024-06-04 18:57:27.693815,58760,5425,30.4,4.1,90.4,-1.0076,0.075,-0.0084,idle
2024-06-04 18:57:27.703815,58760,5426,30.5,4.1,90.4,-1.0081,0.0706,-0.0075,idle
2024-06-04 18:57:27.713815,58760,5427,30.5,4.1,90.4,-1.0086,0.0652,-0.006,idle
2024-06-04 18:57:27.723815,58760,5428,30.5,4.1,90.4,-1.0081,0.0643,-0.005,idle
2024-06-04 18:57:27.733815,58872,5429,30.4,3.9,90.3,-1.0081,0.0667,-0.005,idle
2024-06-04 18:57:27.743815,58872,5430,30.4,3.9,90.3,-1.0076,0.0692,-0.0055,idle
2024-06-04 18:57:27.753815,58872,5431,30.4,3.9,90.3,-1.0072,0.0716,-0.006,idle
2024-06-04 18:57:27.763815,58872,5432,30.4,3.9,90.3,-1.0057,0.076,-0.007,idle
2024-06-04 18:57:27.773815,58880,5433,30.4,3.9,90.3,-1.0052,0.0799,-0.0079,idle
2024-06-04 18:57:27.783815,58880,5434,30.4,3.9,90.3,-1.0057,0.0775,-0.0084,idle
2024-06-04 18:57:27.793815,58880,5435,30.4,3.9,90.3,-1.0057,0.0726,-0.0075,idle
2024-06-04 18:57:27.803815,58880,5436,30.4,3.9,90.3,-1.0057,0.0731,-0.007,idle
2024-06-04 18:57:27.813815,58880,5437,30.4,3.9,90.3,-1.0052,0.076,-0.007,idle
2024-06-04 18:57:27.823815,58880,5438,30.4,3.9,90.3,-1.0057,0.0735,-0.007,idle
2024-06-04 18:57:27.833815,58880,5439,30.4,3.9,90.3,-1.0067,0.0692,-0.007,idle
2024-06-04 18:57:27.843815,58888,5440,30.4,3.9,90.3,-1.0057,0.0711,-0.007,idle
2024-06-04 18:57:27.853815,58888,5441,30.4,4.0,90.3,-1.0052,0.0745,-0.0079,idle
2024-06-04 18:57:27.863815,59000,5442,30.5,4.1,90.4,-1.0062,0.074,-0.0084,idle
2024-06-04 18:57:27.873815,59000,5443,30.5,4.1,90.4,-1.0081,0.0721,-0.0075,idle
2024-06-04 18:57:27.883815,59000,5444,30.5,4.1,90.4,-1.0086,0.0706,-0.006,idle
2024-06-04 18:57:27.893815,59000,5445,30.5,4.1,90.4,-1.0067,0.0726,-0.0065,idle
2024-06-04 18:57:27.903815,59000,5446,30.5,4.1,90.4,-1.0057,0.0726,-0.0079,idle
2024-06-04 18:57:27.913815,59000,5447,30.5,4.1,90.4,-1.0052,0.0706,-0.0084,idle
2024-06-04 18:57:27.923815,59000,5448,30.5,4.1,90.4,-1.0057,0.0716,-0.0075,idle
2024-06-04 18:57:27.933815,59008,5449,30.5,4.1,90.4,-1.0076,0.0721,-0.0065,idle
2024-06-04 18:57:27.943815,59008,5450,30.5,4.1,90.4,-1.0081,0.074,-0.0065,idle
2024-06-04 18:57:27.953815,59008,5451,30.5,4.1,90.4,-1.0057,0.0726,-0.0075,idle
2024-06-04 18:57:27.963815,59008,5452,30.5,4.1,90.4,-1.0032,0.0711,-0.0084,idle
2024-06-04 18:57:27.973815,59008,5453,30.5,4.1,90.4,-1.0028,0.076,-0.0094,idle
2024-06-04 18:57:27.983815,59008,5454,30.5,4.1,90.4,-1.0037,0.0794,-0.0104,idle
2024-06-04 18:57:27.993815,59120,5455,30.6,4.3,90.4,-1.0047,0.0804,-0.0104,idle
2024-06-04 18:57:28.003815,59120,5456,30.6,4.3,90.4,-1.0052,0.0794,-0.0099,idle
2024-06-04 18:57:28.013815,59120,5457,30.6,4.3,90.4,-1.0067,0.0775,-0.0089,idle
2024-06-04 18:57:28.023815,59128,5458,30.6,4.3,90.4,-1.0076,0.075,-0.0079,idle
2024-06-04 18:57:28.033815,59128,5459,30.6,4.3,90.4,-1.0042,0.0721,-0.006,idle
2024-06-04 18:57:28.043815,59128,5460,30.6,4.3,90.4,-1.0028,0.0716,-0.0045,idle
2024-06-04 18:57:28.053815,59128,5461,30.6,4.3,90.4,-1.0072,0.0706,-0.004,idle
2024-06-04 18:57:28.063815,59128,5462,30.6,4.3,90.4,-1.0106,0.0648,-0.0031,idle
2024-06-04 18:57:28.073815,59128,5463,30.6,4.3,90.4,-1.0111,0.0599,-0.0021,idle
2024-06-04 18:57:28.083815,59136,5464,30.6,4.3,90.4,-1.0106,0.0594,-0.0021,idle
2024-06-04 18:57:28.093815,59136,5465,30.6,4.3,90.4,-1.0106,0.0594,-0.004,idle
2024-06-04 18:57:28.103815,59136,5466,30.6,4.3,90.4,-1.0076,0.0589,-0.0045,idle
2024-06-04 18:57:28.113815,59136,5467,30.6,4.3,90.4,-1.0057,0.0696,-0.0065,idle
2024-06-04 18:57:28.123815,59248,5468,30.5,4.5,90.5,-1.0023,0.0833,-0.0114,idle
2024-06-04 18:57:28.133815,59248,5469,30.5,4.5,90.5,-0.9647,0.0858,-0.0133,idle
2024-06-04 18:57:28.143815,59248,5470,30.5,4.5,90.5,-0.9437,0.0838,-0.0089,idle
2024-06-04 18:57:28.153815,59248,5471,30.5,4.5,90.5,-0.9993,0.0779,-0.0055,idle
2024-06-04 18:57:28.163815,59248,5472,30.5,4.5,90.5,-1.0496,0.076,-0.0045,idle
2024-06-04 18:57:28.173815,59256,5473,30.5,4.5,90.5,-1.0365,0.0687,-0.0045,idle
2024-06-04 18:57:28.183815,59256,5474,30.5,4.5,90.5,-1.0125,0.0604,-0.006,idle
2024-06-04 18:57:28.193815,59256,5475,30.5,4.5,90.5,-1.0101,0.0633,-0.0079,idle
2024-06-04 18:57:28.203815,59256,5476,30.5,4.5,90.5,-1.0116,0.0711,-0.0089,idle
2024-06-04 18:57:28.213815,59256,5477,30.5,4.5,90.5,-1.012,0.0804,-0.0089,idle
2024-06-04 18:57:28.223815,59256,5478,30.5,4.5,90.5,-1.0096,0.0872,-0.0089,idle
2024-06-04 18:57:28.233815,59256,5479,30.5,4.5,90.5,-1.0067,0.0911,-0.0084,idle
2024-06-04 18:57:28.243815,59264,5480,30.5,4.5,90.5,-1.0052,0.0897,-0.0079,idle
2024-06-04 18:57:28.253815,59368,5481,30.7,4.6,90.4,-1.0023,0.0853,-0.007,idle
2024-06-04 18:57:28.263815,59376,5482,30.7,4.6,90.4,-1.0013,0.0775,-0.006,idle
2024-06-04 18:57:28.273815,59376,5483,30.7,4.6,90.4,-1.0057,0.0706,-0.0055,idle
2024-06-04 18:57:28.283815,59376,5484,30.7,4.6,90.4,-1.012,0.0667,-0.0045,idle
2024-06-04 18:57:28.293815,59376,5485,30.7,4.5,90.4,-1.0174,0.0613,-0.0031,idle
2024-06-04 18:57:28.303815,59376,5486,30.7,4.5,90.4,-1.0174,0.0565,-0.0021,idle
2024-06-04 18:57:28.313815,59376,5487,30.7,4.5,90.4,-1.014,0.0545,-0.0016,idle
2024-06-04 18:57:28.323815,59384,5488,30.7,4.5,90.4,-1.0101,0.0579,-0.0011,idle
2024-06-04 18:57:28.333815,59384,5489,30.7,4.5,90.4,-1.0076,0.0643,-0.0021,idle
2024-06-04 18:57:28.343815,59384,5490,30.7,4.5,90.4,-1.0081,0.0672,-0.0031,idle
2024-06-04 18:57:28.353815,59384,5491,30.7,4.5,90.4,-1.0106,0.0692,-0.0036,idle
2024-06-04 18:57:28.363815,59384,5492,30.7,4.5,90.4,-1.0125,0.0696,-0.0045,idle
2024-06-04 18:57:28.373815,59384,5493,30.7,4.5,90.4,-1.0086,0.0711,-0.006,idle
2024-06-04 18:57:28.383815,59496,5494,30.7,4.4,90.4,-1.0037,0.0735,-0.007,idle
2024-06-04 18:57:28.393815,59496,5495,30.7,4.4,90.4,-1.0023,0.074,-0.007,idle
2024-06-04 18:57:28.403815,59496,5496,30.7,4.4,90.4,-1.0057,0.0735,-0.0065,idle
2024-06-04 18:57:28.413815,59504,5497,30.7,4.4,90.4,-1.0101,0.075,-0.0065,idle
2024-06-04 18:57:28.423815,59504,5498,30.7,4.4,90.4,-1.0081,0.076,-0.006,idle
2024-06-04 18:57:28.433815,59504,5499,30.7,4.4,90.4,-1.0052,0.0731,-0.005,idle
2024-06-04 18:57:28.443815,59504,5500,30.7,4.4,90.4,-1.0062,0.0687,-0.005,idle
2024-06-04 18:57:28.453815,59504,5501,30.7,4.4,90.4,-1.0072,0.0662,-0.0045,idle
2024-06-04 18:57:28.463815,59504,5502,30.7,4.4,90.4,-1.0086,0.0672,-0.0045,idle
2024-06-04 18:57:28.473815,59504,5503,30.7,4.4,90.4,-1.0096,0.0672,-0.005,idle
2024-06-04 18:57:28.483815,59512,5504,30.7,4.4,90.4,-1.0116,0.0662,-0.006,idle
2024-06-04 18:57:28.493815,59512,5505,30.7,4.4,90.4,-1.0111,0.0657,-0.006,idle
2024-06-04 18:57:28.503815,59512,5506,30.7,4.4,90.4,-1.0091,0.0638,-0.005,idle
2024-06-04 18:57:28.513815,59624,5507,30.7,4.0,90.4,-1.0091,0.0633,-0.0055,idle
2024-06-04 18:57:28.523815,59624,5508,30.7,4.0,90.4,-1.0067,0.0652,-0.0055,idle
2024-06-04 18:57:28.533815,59624,5509,30.7,4.0,90.4,-1.0047,0.0682,-0.0055,idle
2024-06-04 18:57:28.543815,59624,5510,30.7,4.0,90.4,-1.0032,0.0726,-0.006,idle
2024-06-04 18:57:28.553815,59624,5511,30.7,4.0,90.4,-1.0047,0.077,-0.007,idle
2024-06-04 18:57:28.563815,59632,5512,30.7,4.0,90.4,-1.0062,0.077,-0.007,idle
2024-06-04 18:57:28.573815,59632,5513,30.7,4.0,90.4,-1.0062,0.0726,-0.0065,idle
2024-06-04 18:57:28.583815,59632,5514,30.7,4.0,90.4,-1.0076,0.0677,-0.006,idle
2024-06-04 18:57:28.593815,59632,5515,30.7,4.0,90.4,-1.0086,0.0672,-0.0055,idle
2024-06-04 18:57:28.603815,59632,5516,30.7,4.0,90.3,-1.0106,0.0662,-0.0045,idle
2024-06-04 18:57:28.613815,59632,5517,30.7,4.0,90.3,-1.0111,0.0648,-0.004,idle
2024-06-04 18:57:28.623815,59632,5518,30.7,4.0,90.3,-1.0101,0.0633,-0.004,idle
2024-06-04 18:57:28.633815,59640,5519,30.7,4.0,90.3,-1.0076,0.0633,-0.005,idle
2024-06-04 18:57:28.643815,59744,5520,30.7,3.9,90.3,-1.0052,0.0672,-0.0065,idle
2024-06-04 18:57:28.653815,59752,5521,30.7,3.9,90.3,-1.0047,0.0696,-0.0075,idle
2024-06-04 18:57:28.663815,59752,5522,30.7,3.9,90.3,-1.0062,0.0672,-0.0075,idle
2024-06-04 18:57:28.673815,59752,5523,30.7,3.9,90.3,-1.0062,0.0667,-0.007,idle
2024-06-04 18:57:28.683815,59752,5524,30.7,3.9,90.3,-1.0057,0.0677,-0.0065,idle
2024-06-04 18:57:28.693815,59752,5525,30.7,3.9,90.3,-1.0067,0.0682,-0.006,idle
2024-06-04 18:57:28.703815,59752,5526,30.7,3.9,90.3,-1.0081,0.0677,-0.0055,idle
2024-06-04 18:57:28.713815,59752,5527,30.7,3.9,90.3,-1.0086,0.0638,-0.005,idle
2024-06-04 18:57:28.723815,59760,5528,30.7,3.9,90.3,-1.0081,0.0638,-0.0055,idle
2024-06-04 18:57:28.733815,59760,5529,30.7,3.9,90.3,-1.0091,0.0652,-0.005,idle
2024-06-04 18:57:28.743815,59760,5530,30.7,3.8,90.3,-1.012,0.0604,-0.005,idle
2024-06-04 18:57:28.753815,59760,5531,30.7,3.8,90.3,-1.012,0.0574,-0.0045,idle
2024-06-04 18:57:28.763815,59872,5532,30.7,3.6,90.3,-1.0067,0.0618,-0.0045,idle
2024-06-04 18:57:28.773815,59872,5533,30.7,3.6,90.3,-1.0042,0.0662,-0.006,idle
2024-06-04 18:57:28.783815,59872,5534,30.7,3.6,90.3,-1.0037,0.0677,-0.0075,idle
2024-06-04 18:57:28.793815,59872,5535,30.7,3.6,90.3,-1.0013,0.0692,-0.0075,idle
2024-06-04 18:57:28.803815,59872,5536,30.7,3.6,90.3,-1.0042,0.0652,-0.0065,idle
2024-06-04 18:57:28.813815,59880,5537,30.7,3.6,90.3,-1.0091,0.0618,-0.0055,idle
2024-06-04 18:57:28.823815,59880,5538,30.7,3.6,90.3,-1.0111,0.0604,-0.005,idle
2024-06-04 18:57:28.833815,59880,5539,30.7,3.5,90.3,-1.0101,0.0599,-0.006,idle
2024-06-04 18:57:28.843815,59880,5540,30.7,3.5,90.3,-1.0057,0.0638,-0.0079,idle
2024-06-04 18:57:28.853815,59880,5541,30.7,3.5,90.3,-1.0037,0.0677,-0.0089,idle
2024-06-04 18:57:28.863815,59880,5542,30.7,3.5,90.3,-1.0047,0.0687,-0.0089,idle
2024-06-04 18:57:28.873815,59888,5543,30.7,3.5,90.3,-1.0047,0.0687,-0.0079,idle
2024-06-04 18:57:28.883815,59888,5544,30.7,3.5,90.3,-1.0052,0.0652,-0.0065,idle
2024-06-04 18:57:28.893815,60000,5545,30.8,3.4,90.2,-1.0067,0.0643,-0.0055,idle
2024-06-04 18:57:28.903815,60000,5546,30.8,3.4,90.2,-1.0047,0.0657,-0.0045,idle
2024-06-04 18:57:28.913815,60000,5547,30.8,3.4,90.2,-1.0028,0.0633,-0.0036,idle
2024-06-04 18:57:28.923815,60000,5548,30.8,3.4,90.2,-1.0081,0.0569,-0.0036,idle
2024-06-04 18:57:28.933815,60000,5549,30.8,3.4,90.2,-1.0145,0.0506,-0.0026,idle
2024-06-04 18:57:28.943815,60000,5550,30.8,3.4,90.2,-1.0169,0.0443,-0.0026,idle
2024-06-04 18:57:28.953815,60000,5551,30.8,3.4,90.2,-1.0169,0.0399,-0.0026,idle
2024-06-04 18:57:28.963815,60008,5552,30.8,3.4,90.2,-1.0135,0.0418,-0.0026,idle
2024-06-04 18:57:28.973815,60008,5553,30.8,3.4,90.2,-1.0096,0.0467,-0.0021,idle
2024-06-04 18:57:28.983815,60008,5554,30.8,3.4,90.2,-1.0086,0.0506,-0.0016,idle
2024-06-04 18:57:28.993815,60008,5555,30.8,3.4,90.2,-1.0076,0.053,-0.0011,idle
2024-06-04 18:57:29.003815,60008,5556,30.8,3.4,90.2,-1.0086,0.0516,-0.0011,idle
2024-06-04 18:57:29.013815,60008,5557,30.8,3.4,90.2,-1.0091,0.0511,-0.0021,idle
2024-06-04 18:57:29.023815,60120,5558,30.8,3.3,90.2,-1.0086,0.0521,-0.0026,idle
2024-06-04 18:57:29.033815,60120,5559,30.8,3.3,90.2,-1.0091,0.0545,-0.0026,idle
2024-06-04 18:57:29.043815,60120,5560,30.8,3.3,90.2,-1.0101,0.0574,-0.0026,idle
2024-06-04 18:57:29.053815,60128,5561,30.8,3.3,90.2,-1.0106,0.0574,-0.0026,idle
2024-06-04 18:57:29.063815,60128,5562,30.8,3.3,90.2,-1.0091,0.0584,-0.0031,idle
2024-06-04 18:57:29.073815,60128,5563,30.8,3.3,90.2,-1.0062,0.0618,-0.0036,idle
2024-06-04 18:57:29.083815,60128,5564,30.8,3.3,90.2,-1.0032,0.0648,-0.0045,idle
2024-06-04 18:57:29.093815,60128,5565,30.8,3.3,90.2,-1.0047,0.0648,-0.0055,idle
2024-06-04 18:57:29.103815,60128,5566,30.8,3.3,90.2,-1.0052,0.0638,-0.0055,idle
2024-06-04 18:57:29.113815,60136,5567,30.8,3.3,90.2,-1.0062,0.0623,-0.005,idle
2024-06-04 18:57:29.123815,60136,5568,30.8,3.3,90.2,-1.0091,0.0574,-0.005,idle
2024-06-04 18:57:29.133815,60136,5569,30.8,3.3,90.2,-1.0106,0.055,-0.004,idle
2024-06-04 18:57:29.143815,60136,5570,30.8,3.3,90.2,-1.0086,0.0565,-0.0036,idle
2024-06-04 18:57:29.153815,60248,5571,30.8,3.3,90.2,-1.0076,0.0574,-0.004,idle
2024-06-04 18:57:29.163815,60248,5572,30.8,3.3,90.2,-1.0067,0.0579,-0.0045,idle
2024-06-04 18:57:29.173815,60248,5573,30.8,3.3,90.2,-1.0052,0.0584,-0.004,idle
2024-06-04 18:57:29.183815,60248,5574,30.8,3.3,90.2,-1.0047,0.0609,-0.0036,idle
2024-06-04 18:57:29.193815,60248,5575,30.8,3.3,90.2,-1.0067,0.0633,-0.0045,idle
2024-06-04 18:57:29.203815,60256,5576,30.8,3.3,90.2,-1.0096,0.0599,-0.004,idle
2024-06-04 18:57:29.213815,60256,5577,30.8,3.3,90.2,-1.0096,0.0569,-0.0036,idle
2024-06-04 18:57:29.223815,60256,5578,30.8,3.3,90.2,-1.0091,0.056,-0.0036,idle
2024-06-04 18:57:29.233815,60256,5579,30.8,3.3,90.2,-1.0091,0.054,-0.0036,idle
2024-06-04 18:57:29.243815,60256,5580,30.8,3.3,90.2,-1.0091,0.0535,-0.004,idle
2024-06-04 18:57:29.253815,60256,5581,30.8,3.3,90.2,-1.0086,0.056,-0.0045,idle
2024-06-04 18:57:29.263815,60256,5582,30.8,3.3,90.2,-1.0052,0.0613,-0.0055,idle
2024-06-04 18:57:29.273815,60264,5583,30.8,3.3,90.2,-1.0023,0.0692,-0.006,idle
2024-06-04 18:57:29.283815,60368,5584,30.9,3.6,90.2,-1.0042,0.0687,-0.006,idle
2024-06-04 18:57:29.293815,60376,5585,30.9,3.6,90.2,-1.0086,0.0618,-0.0045,idle
2024-06-04 18:57:29.303815,60376,5586,30.9,3.6,90.2,-1.0096,0.0604,-0.0036,idle
2024-06-04 18:57:29.313815,60376,5587,30.9,3.6,90.2,-1.0067,0.0609,-0.0036,idle
2024-06-04 18:57:29.323815,60376,5588,30.9,3.6,90.2,-1.0042,0.0618,-0.005,idle
2024-06-04 18:57:29.333815,60376,5589,30.9,3.6,90.2,-1.0057,0.0604,-0.005,idle
2024-06-04 18:57:29.343815,60376,5590,30.9,3.6,90.2,-1.0091,0.0574,-0.0036,idle
2024-06-04 18:57:29.353815,60384,5591,30.9,3.6,90.2,-1.012,0.0574,-0.0031,idle
2024-06-04 18:57:29.363815,60384,5592,30.9,3.6,90.2,-1.0116,0.0565,-0.0026,idle
2024-06-04 18:57:29.373815,60384,5593,30.9,3.6,90.2,-1.0081,0.0565,-0.0031,idle
2024-06-04 18:57:29.383815,60384,5594,30.9,3.6,90.2,-1.0047,0.0569,-0.0036,idle
2024-06-04 18:57:29.393815,60384,5595,30.9,3.6,90.2,-1.0037,0.0589,-0.0036,idle
2024-06-04 18:57:29.403815,60384,5596,30.9,3.6,90.2,-1.0062,0.0609,-0.0036,idle
2024-06-04 18:57:29.413815,60496,5597,30.9,3.6,90.2,-1.0091,0.0604,-0.0031,idle
2024-06-04 18:57:29.423815,60496,5598,30.9,3.6,90.2,-1.0091,0.0613,-0.0026,idle
2024-06-04 18:57:29.433815,60496,5599,30.9,3.6,90.2,-1.0081,0.0638,-0.0031,idle
2024-06-04 18:57:29.443815,60504,5600,30.9,3.6,90.2,-1.0072,0.0662,-0.004,idle
2024-06-04 18:57:29.453815,60504,5601,30.9,3.6,90.2,-1.0052,0.0657,-0.005,idle
2024-06-04 18:57:29.463815,60504,5602,30.9,3.6,90.2,-1.0037,0.0594,-0.005,idle
2024-06-04 18:57:29.473815,60504,5603,30.9,3.6,90.2,-1.0018,0.0584,-0.005,idle
2024-06-04 18:57:29.483815,60504,5604,30.9,3.6,90.2,-1.0028,0.0643,-0.005,idle
2024-06-04 18:57:29.493815,60504,5605,30.9,3.6,90.2,-1.0096,0.0657,-0.005,idle
2024-06-04 18:57:29.503815,60504,5606,30.9,3.6,90.2,-1.0125,0.0643,-0.005,idle
2024-06-04 18:57:29.513815,60512,5607,30.9,3.6,90.2,-1.0106,0.0579,-0.0045,idle
2024-06-04 18:57:29.523815,60512,5608,30.9,3.6,90.2,-1.0091,0.0526,-0.004,idle
2024-06-04 18:57:29.533815,60512,5609,30.9,3.6,90.2,-1.0096,0.0535,-0.004,idle
2024-06-04 18:57:29.543815,60624,5610,30.8,3.4,90.2,-1.0101,0.0569,-0.004,idle
2024-06-04 18:57:29.553815,60624,5611,30.8,3.4,90.2,-1.0091,0.0594,-0.004,idle
2024-06-04 18:57:29.563815,60624,5612,30.8,3.4,90.2,-1.0067,0.0609,-0.004,idle
2024-06-04 18:57:29.573815,60624,5613,30.8,3.4,90.2,-1.0042,0.0638,-0.0045,idle
2024-06-04 18:57:29.583815,60624,5614,30.8,3.5,90.2,-1.0018,0.0657,-0.005,idle
2024-06-04 18:57:29.593815,60632,5615,30.8,3.5,90.2,-1.0013,0.0652,-0.005,idle
2024-06-04 18:57:29.603815,60632,5616,30.8,3.5,90.2,-1.0042,0.0633,-0.0055,idle
2024-06-04 18:57:29.613815,60632,5617,30.8,3.5,90.2,-1.0076,0.0609,-0.006,idle
2024-06-04 18:57:29.623815,60632,5618,30.8,3.5,90.2,-1.0086,0.0594,-0.004,idle
2024-06-04 18:57:29.633815,60632,5619,30.8,3.5,90.2,-1.0106,0.0589,-0.0026,idle
2024-06-04 18:57:29.643815,60632,5620,30.8,3.5,90.2,-1.0125,0.0584,-0.0016,idle
2024-06-04 18:57:29.653815,60632,5621,30.8,3.5,90.2,-1.0111,0.0579,-0.0011,idle
2024-06-04 18:57:29.663815,60640,5622,30.8,3.4,90.2,-1.0091,0.0565,-0.0016,idle
2024-06-04 18:57:29.673815,60744,5623,30.8,3.4,90.2,-1.0067,0.0589,-0.0036,idle
2024-06-04 18:57:29.683815,60752,5624,30.8,3.4,90.2,-1.0047,0.0633,-0.006,idle
2024-06-04 18:57:29.693815,60752,5625,30.8,3.4,90.2,-1.0032,0.0667,-0.007,idle
2024-06-04 18:57:29.703815,60752,5626,30.8,3.4,90.2,-1.0052,0.0677,-0.0075,idle
2024-06-04 18:57:29.713815,60752,5627,30.8,3.4,90.2,-1.0081,0.0667,-0.0075,idle
2024-06-04 18:57:29.723815,60752,5628,30.8,3.4,90.2,-1.0086,0.0672,-0.006,idle
2024-06-04 18:57:29.733815,60752,5629,30.8,3.4,90.2,-1.0072,0.0677,-0.0045,idle
2024-06-04 18:57:29.743815,60752,5630,30.8,3.4,90.2,-1.0037,0.0618,-0.004,idle
2024-06-04 18:57:29.753815,60760,5631,30.8,3.4,90.2,-1.0037,0.0545,-0.0031,idle
2024-06-04 18:57:29.763815,60760,5632,30.8,3.4,90.2,-1.0067,0.055,-0.0026,idle
2024-06-04 18:57:29.773815,60760,5633,30.8,3.4,90.2,-1.0081,0.0584,-0.0021,idle
2024-06-04 18:57:29.783815,60760,5634,30.8,3.4,90.2,-1.0101,0.0633,-0.0026,idle
2024-06-04 18:57:29.793815,60872,5635,30.9,3.5,90.1,-1.0076,0.0638,-0.0036,idle
2024-06-04 18:57:29.803815,60872,5636,30.9,3.5,90.1,-1.0032,0.0594,-0.004,idle
2024-06-04 18:57:29.813815,60872,5637,30.9,3.5,90.1,-1.0023,0.0584,-0.0045,idle
2024-06-04 18:57:29.823815,60872,5638,30.9,3.5,90.1,-1.0037,0.0628,-0.005,idle
2024-06-04 18:57:29.833815,60872,5639,30.9,3.5,90.1,-1.0072,0.0662,-0.005,idle
2024-06-04 18:57:29.843815,60880,5640,30.9,3.5,90.1,-1.0101,0.0687,-0.0045,idle
2024-06-04 18:57:29.853815,60880,5641,30.9,3.5,90.1,-1.0101,0.0677,-0.0036,idle
2024-06-04 18:57:29.863815,60880,5642,30.9,3.5,90.1,-1.0081,0.0613,-0.0031,idle
2024-06-04 18:57:29.873815,60880,5643,30.9,3.5,90.1,-1.0062,0.0569,-0.004,idle
2024-06-04 18:57:29.883815,60880,5644,30.9,3.5,90.1,-1.0042,0.0594,-0.0045,idle
2024-06-04 18:57:29.893815,60880,5645,30.9,3.5,90.1,-1.0042,0.0618,-0.005,idle
2024-06-04 18:57:29.903815,60888,5646,30.9,3.5,90.1,-1.0067,0.0599,-0.0055,idle
2024-06-04 18:57:29.913815,60888,5647,30.9,3.5,90.1,-1.0106,0.0565,-0.0045,idle
2024-06-04 18:57:29.923815,61000,5648,30.8,3.3,90.2,-1.0111,0.0574,-0.004,idle
2024-06-04 18:57:29.933815,61000,5649,30.8,3.3,90.2,-1.0081,0.0618,-0.0036,idle
2024-06-04 18:57:29.943815,61000,5650,30.8,3.3,90.2,-1.0067,0.0638,-0.0026,idle
2024-06-04 18:57:29.953815,61000,5651,30.8,3.3,90.2,-1.0076,0.0623,-0.0026,idle
2024-06-04 18:57:29.963815,61000,5652,30.8,3.3,90.2,-1.0096,0.0569,-0.0026,idle
2024-06-04 18:57:29.973815,61000,5653,30.8,3.3,90.2,-1.0081,0.054,-0.0036,idle
2024-06-04 18:57:29.983815,61000,5654,30.8,3.3,90.2,-1.0062,0.0589,-0.004,idle
2024-06-04 18:57:29.993815,61008,5655,30.8,3.3,90.2,-1.0047,0.0638,-0.0045,idle
2024-06-04 18:57:30.003815,61008,5656,30.8,3.3,90.2,-1.0052,0.0652,-0.005,idle
2024-06-04 18:57:30.013815,61008,5657,30.8,3.3,90.2,-1.0067,0.0662,-0.0055,idle
2024-06-04 18:57:30.023815,61008,5658,30.8,3.3,90.2,-1.0067,0.0687,-0.0055,idle
2024-06-04 18:57:30.033815,61008,5659,30.8,3.4,90.2,-1.0062,0.0711,-0.006,idle
2024-06-04 18:57:30.043815,61008,5660,30.8,3.4,90.2,-1.0062,0.0687,-0.006,idle
2024-06-04 18:57:30.053815,61120,5661,31.0,3.4,90.2,-1.0062,0.0628,-0.005,idle
2024-06-04 18:57:30.063815,61120,5662,31.0,3.4,90.2,-1.0072,0.0589,-0.0036,idle
2024-06-04 18:57:30.073815,61120,5663,31.0,3.4,90.2,-1.0086,0.0579,-0.0021,idle
2024-06-04 18:57:30.083815,61128,5664,31.0,3.4,90.2,-1.0091,0.0594,-0.0016,idle
2024-06-04 18:57:30.093815,61128,5665,31.0,3.4,90.2,-1.0072,0.0599,-0.0021,idle
2024-06-04 18:57:30.103815,61128,5666,31.0,3.4,90.2,-1.0037,0.055,-0.0021,idle
2024-06-04 18:57:30.113815,61128,5667,31.0,3.4,90.2,-1.0042,0.0506,-0.0021,idle
2024-06-04 18:57:30.123815,61128,5668,31.0,3.4,90.2,-1.0076,0.0526,-0.0026,idle
2024-06-04 18:57:30.133815,61128,5669,31.0,3.4,90.2,-1.0086,0.0589,-0.0036,idle
2024-06-04 18:57:30.143815,61136,5670,31.0,3.4,90.2,-1.0086,0.0638,-0.004,idle
2024-06-04 18:57:30.153815,61136,5671,31.0,3.4,90.2,-1.0086,0.0613,-0.0045,idle
2024-06-04 18:57:30.163815,61136,5672,31.0,3.4,90.2,-1.0067,0.0609,-0.0045,idle
2024-06-04 18:57:30.173815,61136,5673,31.0,3.4,90.2,-1.0067,0.0652,-0.0045,idle
2024-06-04 18:57:30.183815,61248,5674,31.0,3.6,90.2,-1.0067,0.0677,-0.0055,idle
2024-06-04 18:57:30.193815,61248,5675,31.0,3.6,90.2,-1.0047,0.0648,-0.0065,idle
2024-06-04 18:57:30.203815,61248,5676,31.0,3.6,90.2,-1.0062,0.0594,-0.0065,idle
2024-06-04 18:57:30.213815,61248,5677,31.0,3.6,90.2,-1.0081,0.0594,-0.005,idle
2024-06-04 18:57:30.223815,61248,5678,31.0,3.6,90.2,-1.0081,0.0613,-0.0045,idle
2024-06-04 18:57:30.233815,61256,5679,31.0,3.6,90.2,-1.0091,0.0633,-0.0045,idle
2024-06-04 18:57:30.243815,61256,5680,31.0,3.6,90.2,-1.0072,0.0623,-0.0036,idle
2024-06-04 18:57:30.253815,61256,5681,31.0,3.6,90.2,-1.0047,0.0579,-0.0021,idle
2024-06-04 18:57:30.263815,61256,5682,31.0,3.6,90.2,-1.0062,0.0545,-0.0016,idle
2024-06-04 18:57:30.273815,61256,5683,31.0,3.6,90.2,-1.0072,0.0555,-0.0026,idle
2024-06-04 18:57:30.283815,61256,5684,31.0,3.6,90.2,-1.0086,0.0584,-0.0031,idle
2024-06-04 18:57:30.293815,61256,5685,31.0,3.6,90.2,-1.0111,0.0589,-0.0036,idle
2024-06-04 18:57:30.303815,61264,5686,31.0,3.6,90.2,-1.012,0.0555,-0.004,idle
2024-06-04 18:57:30.313815,61368,5687,31.0,3.4,90.2,-1.0111,0.0526,-0.0036,idle
2024-06-04 18:57:30.323815,61376,5688,31.0,3.4,90.2,-1.0081,0.053,-0.0036,idle
2024-06-04 18:57:30.333815,61376,5689,31.0,3.4,90.2,-1.0057,0.056,-0.004,idle
2024-06-04 18:57:30.343815,61376,5690,31.0,3.4,90.2,-1.0023,0.0609,-0.0045,idle
2024-06-04 18:57:30.353815,61376,5691,31.0,3.4,90.2,-1.0018,0.0652,-0.0045,idle
2024-06-04 18:57:30.363815,61376,5692,31.0,3.4,90.2,-1.0067,0.0696,-0.005,idle
2024-06-04 18:57:30.373815,61376,5693,31.0,3.4,90.2,-1.0086,0.0652,-0.004,idle
2024-06-04 18:57:30.383815,61384,5694,31.0,3.4,90.2,-1.0062,0.0604,-0.005,idle
2024-06-04 18:57:30.393815,61384,5695,31.0,3.4,90.2,-1.0057,0.0618,-0.0055,idle
2024-06-04 18:57:30.403815,61384,5696,31.0,3.4,90.2,-1.0062,0.0633,-0.0045,idle
2024-06-04 18:57:30.413815,61384,5697,31.0,3.4,90.2,-1.0072,0.0662,-0.004,idle
2024-06-04 18:57:30.423815,61384,5698,31.0,3.5,90.2,-1.0086,0.0667,-0.004,idle
2024-06-04 18:57:30.433815,61384,5699,31.0,3.5,90.2,-1.0052,0.0618,-0.0036,idle
2024-06-04 18:57:30.443815,61496,5700,31.0,3.3,90.2,-1.0023,0.0569,-0.004,idle
2024-06-04 18:57:30.453815,61496,5701,31.0,3.3,90.2,-1.0032,0.0579,-0.004,idle
2024-06-04 18:57:30.463815,61496,5702,31.0,3.3,90.2,-1.0072,0.0599,-0.0031,idle
2024-06-04 18:57:30.473815,61504,5703,31.0,3.3,90.2,-1.0125,0.0594,-0.0026,idle
2024-06-04 18:57:30.483815,61504,5704,31.0,3.3,90.2,-1.0125,0.0594,-0.0026,idle
2024-06-04 18:57:30.493815,61504,5705,31.0,3.3,90.2,-1.0091,0.0609,-0.0031,idle
2024-06-04 18:57:30.503815,61504,5706,31.0,3.3,90.2,-1.0072,0.0599,-0.004,idle
2024-06-04 18:57:30.513815,61504,5707,31.0,3.3,90.2,-1.0067,0.0599,-0.004,idle
2024-06-04 18:57:30.523815,61504,5708,31.0,3.3,90.2,-1.0086,0.0643,-0.004,idle
2024-06-04 18:57:30.533815,61504,5709,31.0,3.3,90.2,-1.0101,0.0667,-0.004,idle
2024-06-04 18:57:30.543815,61512,5710,31.0,3.3,90.2,-1.0091,0.0652,-0.0036,idle
2024-06-04 18:57:30.553815,61512,5711,31.0,3.3,90.2,-1.0081,0.0609,-0.0036,idle
2024-06-04 18:57:30.563815,61512,5712,31.0,3.3,90.2,-1.0072,0.0584,-0.004,idle
2024-06-04 18:57:30.573815,61624,5713,31.0,3.5,90.2,-1.0062,0.0609,-0.0045,idle
2024-06-04 18:57:30.583815,61624,5714,31.0,3.5,90.2,-1.0057,0.0599,-0.006,idle
2024-06-04 18:57:30.593815,61624,5715,31.0,3.5,90.2,-1.0042,0.0604,-0.006,idle
2024-06-04 18:57:30.603815,61624,5716,31.0,3.5,90.2,-1.0062,0.0643,-0.0055,idle
2024-06-04 18:57:30.613815,61624,5717,31.0,3.5,90.2,-1.0076,0.0652,-0.0045,idle
2024-06-04 18:57:30.623815,61632,5718,31.0,3.5,90.2,-1.0067,0.0662,-0.0036,idle
2024-06-04 18:57:30.633815,61632,5719,31.0,3.5,90.2,-1.0047,0.0652,-0.0036,idle
2024-06-04 18:57:30.643815,61632,5720,31.0,3.5,90.2,-1.0047,0.0609,-0.0036,idle
2024-06-04 18:57:30.653815,61632,5721,31.0,3.5,90.2,-1.0081,0.056,-0.0031,idle
2024-06-04 18:57:30.663815,61632,5722,31.0,3.5,90.2,-1.0106,0.0565,-0.0021,idle
2024-06-04 18:57:30.673815,61632,5723,31.0,3.5,90.2,-1.0125,0.0594,-0.0016,idle
2024-06-04 18:57:30.683815,61632,5724,31.0,3.5,90.2,-1.012,0.0623,-0.0021,idle
2024-06-04 18:57:30.693815,61640,5725,31.0,3.5,90.2,-1.0086,0.0633,-0.0026,idle
2024-06-04 18:57:30.703815,61744,5726,31.1,3.5,90.2,-1.0062,0.0594,-0.0036,idle
2024-06-04 18:57:30.713815,61752,5727,31.1,3.5,90.2,-1.0037,0.0589,-0.004,idle
2024-06-04 18:57:30.723815,61752,5728,31.1,3.5,90.2,-1.0037,0.0638,-0.0045,idle
2024-06-04 18:57:30.733815,61752,5729,31.1,3.5,90.2,-1.0081,0.0672,-0.005,idle
2024-06-04 18:57:30.743815,61752,5730,31.1,3.5,90.2,-1.0116,0.0692,-0.0055,idle
2024-06-04 18:57:30.753815,61752,5731,31.1,3.5,90.2,-1.0111,0.0677,-0.0055,idle
2024-06-04 18:57:30.763815,61752,5732,31.1,3.5,90.2,-1.0091,0.0628,-0.0055,idle
2024-06-04 18:57:30.773815,61752,5733,31.1,3.5,90.2,-1.0062,0.0599,-0.005,idle
2024-06-04 18:57:30.783815,61760,5734,31.1,3.5,90.2,-1.0037,0.0589,-0.0045,idle
2024-06-04 18:57:30.793815,61760,5735,31.1,3.5,90.2,-1.0072,0.0594,-0.0036,idle
2024-06-04 18:57:30.803815,61760,5736,31.1,3.5,90.2,-1.0096,0.0594,-0.0026,idle
2024-06-04 18:57:30.813815,61760,5737,31.1,3.5,90.2,-1.0096,0.0604,-0.0016,idle
2024-06-04 18:57:30.823815,61872,5738,31.1,3.4,90.1,-1.0091,0.0618,-0.0021,idle
2024-06-04 18:57:30.833815,61872,5739,31.1,3.4,90.1,-1.0076,0.0648,-0.0026,idle
2024-06-04 18:57:30.843815,61872,5740,31.1,3.4,90.1,-1.0072,0.0657,-0.004,idle
2024-06-04 18:57:30.853815,61872,5741,31.1,3.4,90.1,-1.0067,0.0652,-0.004,idle
2024-06-04 18:57:30.863815,61872,5742,31.1,3.4,90.1,-1.0067,0.0657,-0.004,idle
2024-06-04 18:57:30.873815,61880,5743,31.1,3.5,90.1,-1.0076,0.0667,-0.0045,idle
2024-06-04 18:57:30.883815,61880,5744,31.1,3.5,90.1,-1.0096,0.0652,-0.0045,idle
2024-06-04 18:57:30.893815,61880,5745,31.1,3.5,90.1,-1.012,0.0604,-0.0036,idle
2024-06-04 18:57:30.903815,61880,5746,31.1,3.5,90.1,-1.0116,0.0584,-0.0026,idle
2024-06-04 18:57:30.913815,61880,5747,31.1,3.5,90.1,-1.0081,0.0584,-0.0031,idle
2024-06-04 18:57:30.923815,61880,5748,31.1,3.5,90.1,-1.0052,0.0599,-0.0045,idle
2024-06-04 18:57:30.933815,61888,5749,31.1,3.5,90.1,-1.0047,0.0643,-0.0055,idle
2024-06-04 18:57:30.943815,61888,5750,31.1,3.5,90.1,-1.0067,0.0667,-0.0055,idle
2024-06-04 18:57:30.953815,62000,5751,31.1,3.6,90.2,-1.0091,0.0672,-0.0055,idle
2024-06-04 18:57:30.963815,62000,5752,31.1,3.6,90.2,-1.0096,0.0662,-0.0045,idle
2024-06-04 18:57:30.973815,62000,5753,31.1,3.6,90.2,-1.0076,0.0638,-0.004,idle
2024-06-04 18:57:30.983815,62000,5754,31.1,3.6,90.2,-1.0067,0.0613,-0.0031,idle
2024-06-04 18:57:30.993815,62000,5755,31.1,3.6,90.2,-1.0076,0.0589,-0.0016,idle
2024-06-04 18:57:31.003815,62000,5756,31.1,3.6,90.2,-1.0086,0.0584,-0.0016,idle
2024-06-04 18:57:31.013815,62000,5757,31.1,3.6,90.2,-1.0086,0.0594,-0.0021,idle
2024-06-04 18:57:31.023815,62008,5758,31.1,3.6,90.2,-1.0101,0.0613,-0.0031,idle
2024-06-04 18:57:31.033815,62008,5759,31.1,3.6,90.2,-1.0111,0.0604,-0.0036,idle
2024-06-04 18:57:31.043815,62008,5760,31.1,3.6,90.2,-1.0096,0.0604,-0.0045,idle
2024-06-04 18:57:31.053815,62008,5761,31.1,3.6,90.2,-1.0067,0.0643,-0.0055,idle
2024-06-04 18:57:31.063815,62008,5762,31.1,3.7,90.2,-1.0047,0.0692,-0.0075,idle
2024-06-04 18:57:31.073815,62008,5763,31.1,3.7,90.2,-1.0052,0.0701,-0.0084,idle
2024-06-04 18:57:31.083815,62120,5764,31.1,3.8,90.3,-1.0076,0.0711,-0.0084,idle
2024-06-04 18:57:31.093815,62120,5765,31.1,3.9,90.3,-1.0096,0.0726,-0.0075,idle
2024-06-04 18:57:31.103815,62120,5766,31.1,3.9,90.3,-1.0072,0.0716,-0.0065,idle
2024-06-04 18:57:31.113815,62128,5767,31.1,3.9,90.3,-1.0032,0.0692,-0.006,idle
2024-06-04 18:57:31.123815,62128,5768,31.1,3.9,90.3,-1.0062,0.0638,-0.0055,idle
2024-06-04 18:57:31.133815,62128,5769,31.1,3.8,90.3,-1.0096,0.0618,-0.004,idle
2024-06-04 18:57:31.143815,62128,5770,31.1,3.8,90.3,-1.0116,0.0638,-0.0036,idle
2024-06-04 18:57:31.153815,62128,5771,31.1,3.8,90.3,-1.0116,0.0633,-0.0036,idle
2024-06-04 18:57:31.163815,62128,5772,31.1,3.8,90.3,-1.0076,0.0584,-0.0036,idle
2024-06-04 18:57:31.173815,62136,5773,31.1,3.8,90.3,-1.0047,0.056,-0.0036,idle
2024-06-04 18:57:31.183815,62136,5774,31.1,3.8,90.3,-1.0062,0.0609,-0.0036,idle
2024-06-04 18:57:31.193815,62136,5775,31.1,3.8,90.3,-1.0081,0.0672,-0.0045,idle
2024-06-04 18:57:31.203815,62136,5776,31.1,3.8,90.3,-1.0101,0.0706,-0.0045,idle
2024-06-04 18:57:31.213815,62248,5777,31.1,3.8,90.3,-1.0086,0.0672,-0.005,idle
2024-06-04 18:57:31.223815,62248,5778,31.1,3.8,90.3,-1.0057,0.0657,-0.0055,idle
2024-06-04 18:57:31.233815,62248,5779,31.1,3.8,90.3,-1.0062,0.0682,-0.005,idle
2024-06-04 18:57:31.243815,62248,5780,31.1,3.8,90.3,-1.0101,0.0677,-0.0045,idle
2024-06-04 18:57:31.253815,62248,5781,31.1,3.8,90.3,-1.0116,0.0657,-0.004,idle
2024-06-04 18:57:31.263815,62256,5782,31.1,3.8,90.3,-1.0081,0.0643,-0.0045,idle
2024-06-04 18:57:31.273815,62256,5783,31.1,3.8,90.3,-1.0037,0.0648,-0.0055,idle
2024-06-04 18:57:31.283815,62256,5784,31.1,3.8,90.3,-1.0023,0.0657,-0.0065,idle
2024-06-04 18:57:31.293815,62256,5785,31.1,3.8,90.3,-1.0052,0.0618,-0.006,idle
2024-06-04 18:57:31.303815,62256,5786,31.1,3.8,90.3,-1.0096,0.0599,-0.006,idle
2024-06-04 18:57:31.313815,62256,5787,31.1,3.8,90.3,-1.0125,0.0609,-0.005,idle
2024-06-04 18:57:31.323815,62256,5788,31.1,3.8,90.3,-1.0116,0.0618,-0.0045,idle
2024-06-04 18:57:31.333815,62264,5789,31.1,3.8,90.3,-1.0096,0.0633,-0.0045,idle
2024-06-04 18:57:31.343815,62368,5790,31.1,3.7,90.3,-1.0072,0.0643,-0.005,idle
2024-06-04 18:57:31.353815,62376,5791,31.1,3.7,90.2,-1.0062,0.0677,-0.005,idle
2024-06-04 18:57:31.363815,62376,5792,31.1,3.7,90.2,-1.0057,0.0682,-0.0055,idle
2024-06-04 18:57:31.373815,62376,5793,31.1,3.7,90.2,-1.0057,0.0672,-0.0055,idle
2024-06-04 18:57:31.383815,62376,5794,31.1,3.7,90.2,-1.0072,0.0662,-0.005,idle
2024-06-04 18:57:31.393815,62376,5795,31.1,3.7,90.2,-1.0086,0.0633,-0.0055,idle
2024-06-04 18:57:31.403815,62376,5796,31.1,3.7,90.2,-1.0091,0.0604,-0.0055,idle
2024-06-04 18:57:31.413815,62384,5797,31.1,3.7,90.2,-1.0096,0.0579,-0.005,idle
2024-06-04 18:57:31.423815,62384,5798,31.1,3.7,90.2,-1.0111,0.0584,-0.005,idle
2024-06-04 18:57:31.433815,62384,5799,31.1,3.7,90.2,-1.0106,0.0609,-0.005,idle
2024-06-04 18:57:31.443815,62384,5800,31.1,3.7,90.2,-1.0086,0.0643,-0.005,idle
2024-06-04 18:57:31.453815,62384,5801,31.1,3.7,90.3,-1.0062,0.0672,-0.005,idle
2024-06-04 18:57:31.463815,62384,5802,31.1,3.7,90.3,-1.0047,0.0662,-0.005,idle
2024-06-04 18:57:31.473815,62496,5803,31.1,3.6,90.2,-1.0047,0.0633,-0.0045,idle
2024-06-04 18:57:31.483815,62496,5804,31.1,3.6,90.2,-1.0047,0.0643,-0.0036,idle
2024-06-04 18:57:31.493815,62496,5805,31.1,3.6,90.2,-1.0042,0.0677,-0.0036,idle
2024-06-04 18:57:31.503815,62504,5806,31.1,3.6,90.2,-1.0057,0.0692,-0.005,idle
2024-06-04 18:57:31.513815,62504,5807,31.1,3.6,90.2,-1.0081,0.0628,-0.006,idle
2024-06-04 18:57:31.523815,62504,5808,31.1,3.6,90.2,-1.0096,0.0579,-0.0055,idle
2024-06-04 18:57:31.533815,62504,5809,31.1,3.6,90.2,-1.0091,0.0609,-0.0055,idle
2024-06-04 18:57:31.543815,62504,5810,31.1,3.6,90.2,-1.0096,0.0643,-0.005,idle
2024-06-04 18:57:31.553815,62504,5811,31.1,3.6,90.2,-1.0086,0.0677,-0.0055,idle
2024-06-04 18:57:31.563815,62504,5812,31.1,3.6,90.2,-1.0076,0.0687,-0.006,idle
2024-06-04 18:57:31.573815,62512,5813,31.1,3.6,90.2,-1.0076,0.0652,-0.0065,idle
2024-06-04 18:57:31.583815,62512,5814,31.1,3.6,90.2,-1.0042,0.0584,-0.006,idle
2024-06-04 18:57:31.593815,62512,5815,31.1,3.6,90.2,-1.0018,0.056,-0.005,idle
2024-06-04 18:57:31.603815,62624,5816,31.1,3.5,90.2,-1.0052,0.0589,-0.0045,idle
2024-06-04 18:57:31.613815,62624,5817,31.1,3.5,90.2,-1.0081,0.0623,-0.004,idle
2024-06-04 18:57:31.623815,62624,5818,31.1,3.5,90.2,-1.0091,0.0652,-0.004,idle
2024-06-04 18:57:31.633815,62624,5819,31.1,3.5,90.2,-1.0076,0.0662,-0.005,idle
2024-06-04 18:57:31.643815,62624,5820,31.1,3.5,90.2,-1.0076,0.0662,-0.0055,idle
2024-06-04 18:57:31.653815,62632,5821,31.1,3.5,90.2,-1.0086,0.0667,-0.006,idle
2024-06-04 18:57:31.663815,62632,5822,31.1,3.5,90.2,-1.0076,0.0657,-0.0055,idle
2024-06-04 18:57:31.673815,62632,5823,31.1,3.5,90.2,-1.0072,0.0657,-0.0055,idle
2024-06-04 18:57:31.683815,62632,5824,31.1,3.5,90.2,-1.0096,0.0648,-0.005,idle
2024-06-04 18:57:31.693815,62632,5825,31.1,3.5,90.2,-1.0106,0.0633,-0.0036,idle
2024-06-04 18:57:31.703815,62632,5826,31.1,3.5,90.2,-1.0101,0.0604,-0.0026,idle
2024-06-04 18:57:31.713815,62632,5827,31.1,3.5,90.2,-1.0067,0.0579,-0.0016,idle
2024-06-04 18:57:31.723815,62640,5828,31.1,3.5,90.2,-1.0042,0.0579,-0.0021,idle
2024-06-04 18:57:31.733815,62744,5829,31.1,3.5,90.2,-1.0052,0.0609,-0.004,idle
2024-06-04 18:57:31.743815,62752,5830,31.1,3.5,90.2,-1.0076,0.0633,-0.0055,idle
2024-06-04 18:57:31.753815,62752,5831,31.1,3.5,90.2,-1.0081,0.0638,-0.007,idle
2024-06-04 18:57:31.763815,62752,5832,31.1,3.5,90.2,-1.0086,0.0652,-0.0079,idle
2024-06-04 18:57:31.773815,62752,5833,31.1,3.5,90.2,-1.0086,0.0677,-0.0075,idle
2024-06-04 18:57:31.783815,62752,5834,31.1,3.5,90.2,-1.0076,0.0701,-0.007,idle
2024-06-04 18:57:31.793815,62752,5835,31.1,3.5,90.2,-1.0086,0.0677,-0.0065,idle
2024-06-04 18:57:31.803815,62752,5836,31.1,3.5,90.2,-1.0062,0.0648,-0.006,idle
2024-06-04 18:57:31.813815,62760,5837,31.1,3.5,90.2,-1.0028,0.0657,-0.005,idle
2024-06-04 18:57:31.823815,62760,5838,31.1,3.5,90.2,-1.0032,0.0657,-0.0036,idle
2024-06-04 18:57:31.833815,62760,5839,31.1,3.5,90.2,-1.0062,0.0648,-0.0026,idle
2024-06-04 18:57:31.843815,62760,5840,31.1,3.5,90.2,-1.0086,0.0633,-0.0031,idle
2024-06-04 18:57:31.853815,62872,5841,31.2,3.5,90.2,-1.0091,0.0609,-0.0036,idle
2024-06-04 18:57:31.863815,62872,5842,31.2,3.5,90.2,-1.0086,0.0613,-0.004,idle
2024-06-04 18:57:31.873815,62872,5843,31.2,3.5,90.2,-1.0076,0.0618,-0.0045,idle
2024-06-04 18:57:31.883815,62872,5844,31.2,3.5,90.2,-1.0067,0.0623,-0.005,idle
2024-06-04 18:57:31.893815,62872,5845,31.2,3.5,90.2,-1.0067,0.0648,-0.0065,idle
2024-06-04 18:57:31.903815,62880,5846,31.2,3.5,90.2,-1.0081,0.0662,-0.0065,idle
2024-06-04 18:57:31.913815,62880,5847,31.2,3.5,90.2,-1.0091,0.0623,-0.006,idle
2024-06-04 18:57:31.923815,62880,5848,31.2,3.5,90.2,-1.0067,0.0599,-0.0055,idle
2024-06-04 18:57:31.933815,62880,5849,31.2,3.5,90.2,-1.0047,0.0648,-0.0055,idle
2024-06-04 18:57:31.943815,62880,5850,31.2,3.5,90.2,-1.0057,0.0692,-0.0055,idle
2024-06-04 18:57:31.953815,62880,5851,31.2,3.5,90.2,-1.0096,0.0682,-0.006,idle
2024-06-04 18:57:31.963815,62888,5852,31.2,3.5,90.2,-1.0116,0.0618,-0.006,idle
2024-06-04 18:57:31.973815,62888,5853,31.2,3.5,90.2,-1.0086,0.0565,-0.0055,idle
2024-06-04 18:57:31.983815,63000,5854,31.1,3.4,90.2,-1.0052,0.0599,-0.0055,idle
2024-06-04 18:57:31.993815,63000,5855,31.1,3.4,90.2,-1.0052,0.0643,-0.0045,idle
2024-06-04 18:57:32.003815,63000,5856,31.1,3.4,90.2,-1.0067,0.0643,-0.004,idle
2024-06-04 18:57:32.013815,63000,5857,31.1,3.4,90.2,-1.0086,0.0643,-0.004,idle
2024-06-04 18:57:32.023815,63000,5858,31.1,3.4,90.2,-1.0091,0.0662,-0.0036,idle
2024-06-04 18:57:32.033815,63000,5859,31.1,3.4,90.2,-1.0091,0.0662,-0.0026,idle
2024-06-04 18:57:32.043815,63000,5860,31.1,3.4,90.2,-1.0096,0.0623,-0.0031,idle
2024-06-04 18:57:32.053815,63008,5861,31.1,3.4,90.2,-1.0072,0.0609,-0.005,idle
2024-06-04 18:57:32.063815,63008,5862,31.1,3.4,90.2,-1.0037,0.0638,-0.006,idle
2024-06-04 18:57:32.073815,63008,5863,31.1,3.4,90.2,-1.0057,0.0672,-0.0065,idle
2024-06-04 18:57:32.083815,63008,5864,31.1,3.4,90.2,-1.0096,0.0672,-0.006,idle
2024-06-04 18:57:32.093815,63008,5865,31.1,3.4,90.2,-1.0116,0.0633,-0.005,idle
2024-06-04 18:57:32.103815,63008,5866,31.1,3.4,90.2,-1.0106,0.0604,-0.0055,idle
2024-06-04 18:57:32.113815,63120,5867,31.1,3.4,90.2,-1.0057,0.0623,-0.0055,idle
2024-06-04 18:57:32.123815,63120,5868,31.1,3.4,90.2,-1.0042,0.0643,-0.0045,idle
2024-06-04 18:57:32.133815,63120,5869,31.1,3.4,90.2,-1.0081,0.0623,-0.0036,idle
2024-06-04 18:57:32.143815,63128,5870,31.1,3.4,90.2,-1.0116,0.0604,-0.0031,idle
2024-06-04 18:57:32.153815,63128,5871,31.1,3.4,90.2,-1.0116,0.0613,-0.0031,idle
2024-06-04 18:57:32.163815,63128,5872,31.2,3.4,90.2,-1.0086,0.0609,-0.0045,idle
2024-06-04 18:57:32.173815,63128,5873,31.2,3.4,90.2,-1.0067,0.0618,-0.0055,idle
2024-06-04 18:57:32.183815,63128,5874,31.2,3.4,90.2,-1.0067,0.0652,-0.0055,idle
2024-06-04 18:57:32.193815,63128,5875,31.2,3.5,90.2,-1.0086,0.0672,-0.005,idle
2024-06-04 18:57:32.203815,63136,5876,31.2,3.5,90.2,-1.0111,0.0677,-0.005,idle
2024-06-04 18:57:32.213815,63136,5877,31.2,3.5,90.2,-1.0111,0.0609,-0.0055,idle
2024-06-04 18:57:32.223815,63136,5878,31.2,3.5,90.2,-1.0076,0.055,-0.006,idle
2024-06-04 18:57:32.233815,63136,5879,31.2,3.5,90.2,-1.0062,0.0584,-0.006,idle
2024-06-04 18:57:32.243815,63248,5880,31.2,3.4,90.2,-1.0086,0.0618,-0.0055,idle
2024-06-04 18:57:32.253815,63248,5881,31.2,3.4,90.2,-1.0106,0.0643,-0.005,idle
2024-06-04 18:57:32.263815,63248,5882,31.2,3.4,90.2,-1.0111,0.0638,-0.0045,idle
2024-06-04 18:57:32.273815,63248,5883,31.2,3.4,90.2,-1.0091,0.0643,-0.005,idle
2024-06-04 18:57:32.283815,63248,5884,31.2,3.4,90.2,-1.0062,0.0677,-0.006,idle
2024-06-04 18:57:32.293815,63256,5885,31.2,3.4,90.2,-1.0047,0.0682,-0.0065,idle
2024-06-04 18:57:32.303815,63256,5886,31.2,3.4,90.2,-1.0052,0.0672,-0.0065,idle
2024-06-04 18:57:32.313815,63256,5887,31.2,3.5,90.3,-1.0072,0.0672,-0.007,idle
2024-06-04 18:57:32.323815,63256,5888,31.2,3.5,90.3,-1.0096,0.0652,-0.007,idle
2024-06-04 18:57:32.333815,63256,5889,31.2,3.5,90.3,-1.0106,0.0613,-0.006,idle
2024-06-04 18:57:32.343815,63256,5890,31.2,3.5,90.3,-1.0116,0.0594,-0.005,idle
2024-06-04 18:57:32.353815,63256,5891,31.2,3.5,90.3,-1.0116,0.0589,-0.0045,idle
2024-06-04 18:57:32.363815,63264,5892,31.2,3.5,90.3,-1.0072,0.0589,-0.0036,idle
2024-06-04 18:57:32.373815,63368,5893,31.1,3.4,90.2,-1.0052,0.0604,-0.004,idle
2024-06-04 18:57:32.383815,63376,5894,31.1,3.4,90.2,-1.0052,0.0648,-0.0045,idle
2024-06-04 18:57:32.393815,63376,5895,31.1,3.4,90.2,-1.0052,0.0677,-0.005,idle
2024-06-04 18:57:32.403815,63376,5896,31.1,3.4,90.2,-1.0062,0.0682,-0.0055,idle
2024-06-04 18:57:32.413815,63376,5897,31.1,3.4,90.2,-1.0062,0.0687,-0.006,idle
2024-06-04 18:57:32.423815,63376,5898,31.1,3.4,90.2,-1.0062,0.0701,-0.006,idle
2024-06-04 18:57:32.433815,63376,5899,31.1,3.4,90.2,-1.0091,0.0696,-0.0055,idle
2024-06-04 18:57:32.443815,63384,5900,31.1,3.4,90.2,-1.012,0.0652,-0.005,idle
2024-06-04 18:57:32.453815,63384,5901,31.1,3.4,90.2,-1.0125,0.0589,-0.004,idle
2024-06-04 18:57:32.463815,63384,5902,31.1,3.4,90.2,-1.0116,0.056,-0.004,idle
2024-06-04 18:57:32.473815,63384,5903,31.1,3.4,90.2,-1.0076,0.0569,-0.0045,idle
2024-06-04 18:57:32.483815,63384,5904,31.1,3.4,90.2,-1.0057,0.0599,-0.004,idle
2024-06-04 18:57:32.493815,63384,5905,31.1,3.4,90.2,-1.0067,0.0633,-0.005,idle
2024-06-04 18:57:32.503815,63496,5906,31.1,3.6,90.2,-1.0076,0.0657,-0.0055,idle
2024-06-04 18:57:32.513815,63496,5907,31.1,3.6,90.2,-1.0062,0.0672,-0.0055,idle
2024-06-04 18:57:32.523815,63496,5908,31.1,3.6,90.2,-1.0042,0.0672,-0.0065,idle
2024-06-04 18:57:32.533815,63504,5909,31.1,3.6,90.2,-1.0037,0.0667,-0.007,idle
2024-06-04 18:57:32.543815,63504,5910,31.1,3.6,90.2,-1.0062,0.0677,-0.007,idle
2024-06-04 18:57:32.553815,63504,5911,31.1,3.6,90.2,-1.0111,0.0667,-0.005,idle
2024-06-04 18:57:32.563815,63504,5912,31.1,3.6,90.2,-1.0155,0.0623,-0.004,idle
2024-06-04 18:57:32.573815,63504,5913,31.1,3.6,90.2,-1.0155,0.0565,-0.0031,idle
2024-06-04 18:57:32.583815,63504,5914,31.1,3.6,90.2,-1.0116,0.0526,-0.0036,idle
2024-06-04 18:57:32.593815,63504,5915,31.1,3.6,90.2,-1.0072,0.0565,-0.005,idle
2024-06-04 18:57:32.603815,63512,5916,31.1,3.6,90.2,-1.0067,0.0623,-0.0065,idle
2024-06-04 18:57:32.613815,63512,5917,31.1,3.6,90.2,-1.0067,0.0652,-0.0075,idle
2024-06-04 18:57:32.623815,63512,5918,31.1,3.6,90.2,-1.0062,0.0682,-0.0075,idle
2024-06-04 18:57:32.633815,63624,5919,31.1,3.8,90.3,-1.0067,0.0696,-0.007,idle
2024-06-04 18:57:32.643815,63624,5920,31.1,3.8,90.3,-1.0072,0.0701,-0.007,idle
2024-06-04 18:57:32.653815,63624,5921,31.1,3.8,90.3,-1.0072,0.0692,-0.007,idle
2024-06-04 18:57:32.663815,63624,5922,31.1,3.8,90.3,-1.0062,0.0648,-0.0065,idle
2024-06-04 18:57:32.673815,63624,5923,31.1,3.8,90.3,-1.0072,0.0618,-0.006,idle
2024-06-04 18:57:32.683815,63632,5924,31.1,3.8,90.3,-1.0091,0.0599,-0.0055,idle
2024-06-04 18:57:32.693815,63632,5925,31.1,3.8,90.3,-1.0106,0.0584,-0.0055,idle
2024-06-04 18:57:32.703815,63632,5926,31.1,3.8,90.3,-1.0096,0.0589,-0.0055,idle
2024-06-04 18:57:32.713815,63632,5927,31.1,3.8,90.3,-1.0076,0.0609,-0.0055,idle
2024-06-04 18:57:32.723815,63632,5928,31.1,3.8,90.3,-1.0052,0.0638,-0.0055,idle
2024-06-04 18:57:32.733815,63632,5929,31.1,3.8,90.3,-1.0042,0.0652,-0.0055,idle
2024-06-04 18:57:32.743815,63632,5930,31.1,3.8,90.3,-1.0047,0.0667,-0.006,idle
2024-06-04 18:57:32.753815,63640,5931,31.1,3.8,90.3,-1.0072,0.0672,-0.007,idle
2024-06-04 18:57:32.763815,63744,5932,31.2,3.8,90.3,-1.0106,0.0662,-0.0075,idle
2024-06-04 18:57:32.773815,63752,5933,31.2,3.8,90.3,-1.0101,0.0672,-0.0079,idle
2024-06-04 18:57:32.783815,63752,5934,31.2,3.8,90.3,-1.0072,0.0657,-0.0089,idle
2024-06-04 18:57:32.793815,63752,5935,31.2,3.8,90.3,-1.0047,0.0677,-0.0089,idle
2024-06-04 18:57:32.803815,63752,5936,31.2,3.8,90.3,-1.0052,0.0731,-0.0084,idle
2024-06-04 18:57:32.813815,63752,5937,31.2,3.8,90.3,-1.0076,0.0716,-0.0065,idle
2024-06-04 18:57:32.823815,63752,5938,31.2,3.8,90.3,-1.0106,0.0628,-0.0055,idle
2024-06-04 18:57:32.833815,63752,5939,31.2,3.8,90.3,-1.0111,0.0565,-0.005,idle
2024-06-04 18:57:32.843815,63760,5940,31.2,3.8,90.3,-1.0106,0.0579,-0.0036,idle
2024-06-04 18:57:32.853815,63760,5941,31.2,3.8,90.3,-1.0101,0.0594,-0.0026,idle
2024-06-04 18:57:32.863815,63760,5942,31.2,3.8,90.3,-1.0091,0.0604,-0.0026,idle
2024-06-04 18:57:32.873815,63760,5943,31.2,3.8,90.3,-1.0072,0.0599,-0.0036,idle
2024-06-04 18:57:32.883815,63872,5944,31.1,3.7,90.2,-1.0062,0.0613,-0.0045,idle
2024-06-04 18:57:32.893815,63872,5945,31.1,3.7,90.2,-1.0067,0.0638,-0.0055,idle
2024-06-04 18:57:32.903815,63872,5946,31.1,3.7,90.3,-1.0086,0.0648,-0.007,idle
2024-06-04 18:57:32.913815,63872,5947,31.2,3.7,90.3,-1.0086,0.0662,-0.0079,idle
2024-06-04 18:57:32.923815,63872,5948,31.2,3.7,90.3,-1.0076,0.0677,-0.0075,idle
2024-06-04 18:57:32.933815,63880,5949,31.2,3.7,90.3,-1.0081,0.0662,-0.007,idle
2024-06-04 18:57:32.943815,63880,5950,31.2,3.7,90.3,-1.0076,0.0618,-0.007,idle
2024-06-04 18:57:32.953815,63880,5951,31.2,3.7,90.3,-1.0052,0.0623,-0.007,idle
2024-06-04 18:57:32.963815,63880,5952,31.2,3.7,90.3,-1.0037,0.0677,-0.0075,idle
2024-06-04 18:57:32.973815,63880,5953,31.2,3.7,90.3,-1.0067,0.0687,-0.0079,idle
2024-06-04 18:57:32.983815,63880,5954,31.2,3.7,90.3,-1.012,0.0643,-0.0079,idle
2024-06-04 18:57:32.993815,63888,5955,31.2,3.7,90.3,-1.014,0.0604,-0.0075,idle
2024-06-04 18:57:33.003815,63888,5956,31.2,3.7,90.3,-1.0116,0.0613,-0.007,idle
2024-06-04 18:57:33.013815,64000,5957,31.2,3.6,90.3,-1.0081,0.0628,-0.006,idle
2024-06-04 18:57:33.023815,64000,5958,31.2,3.6,90.3,-1.0052,0.0618,-0.005,idle
2024-06-04 18:57:33.033815,64000,5959,31.2,3.6,90.3,-1.0042,0.0633,-0.0045,idle
2024-06-04 18:57:33.043815,64000,5960,31.2,3.6,90.3,-1.0072,0.0657,-0.004,idle
2024-06-04 18:57:33.053815,64000,5961,31.2,3.6,90.3,-1.0106,0.0633,-0.004,idle
