read_at,millis,count,Yaw(deg),Pitch(deg),Roll(deg),ax(mg),ay(mg),az(mg),target_name
2024-06-04 18:58:22.011169,113256,11036,102.0,11.0,69.8,-1.3914,-0.9727,0.5979,left-right
2024-06-04 18:58:22.021169,113256,11037,102.0,10.8,69.8,-1.3631,-1.0108,0.5789,left-right
2024-06-04 18:58:22.031169,113256,11038,102.0,10.5,69.8,-1.3348,-1.0201,0.5603,left-right
2024-06-04 18:58:22.041169,113256,11039,102.0,10.2,69.8,-1.3094,-0.9913,0.5501,left-right
2024-06-04 18:58:22.051169,113256,11040,102.0,10.0,69.8,-1.2552,-0.9513,0.5442,left-right
2024-06-04 18:58:22.061169,113256,11041,101.9,9.7,69.8,-1.1956,-0.9078,0.5354,left-right
2024-06-04 18:58:22.071169,113264,11042,101.9,9.5,69.8,-1.1414,-0.8619,0.5256,left-right
2024-06-04 18:58:22.081169,113368,11043,94.6,-7.4,69.1,-1.0921,-0.7945,0.5173,left-right
2024-06-04 18:58:22.091169,113376,11044,94.5,-7.5,69.1,-1.0472,-0.7213,0.5076,left-right
2024-06-04 18:58:22.101169,113376,11045,94.4,-7.6,69.1,-0.9949,-0.6598,0.4998,left-right
2024-06-04 18:58:22.111169,113376,11046,94.3,-7.7,69.1,-0.953,-0.5977,0.4954,left-right
2024-06-04 18:58:22.121169,113376,11047,94.2,-7.8,69.1,-0.93,-0.5411,0.4944,left-right
2024-06-04 18:58:22.131169,113376,11048,94.1,-7.9,69.1,-0.9144,-0.4845,0.4915,left-right
2024-06-04 18:58:22.141169,113376,11049,93.9,-7.9,69.2,-0.908,-0.4171,0.4856,left-right
2024-06-04 18:58:22.151169,113376,11050,93.8,-7.9,69.2,-0.9027,-0.3463,0.4817,left-right
2024-06-04 18:58:22.161169,113384,11051,93.7,-7.9,69.2,-0.8909,-0.2735,0.4778,left-right
2024-06-04 18:58:22.171169,113384,11052,93.5,-7.8,69.2,-0.8753,-0.2008,0.471,left-right
2024-06-04 18:58:22.181169,113384,11053,93.4,-7.8,69.2,-0.8602,-0.1358,0.4631,left-right
2024-06-04 18:58:22.191169,113384,11054,93.3,-7.7,69.3,-0.8514,-0.0704,0.4558,left-right
2024-06-04 18:58:22.201169,113384,11055,93.1,-7.6,69.3,-0.8431,-0.0025,0.447,left-right
2024-06-04 18:58:22.211169,113496,11056,79.5,1.7,69.5,-0.8304,0.0692,0.4353,left-right
2024-06-04 18:58:22.221169,113496,11057,79.4,1.8,69.5,-0.8079,0.1595,0.4216,left-right
2024-06-04 18:58:22.231169,113496,11058,79.2,1.9,69.5,-0.7791,0.2581,0.407,left-right
2024-06-04 18:58:22.241169,113504,11059,79.0,2.1,69.5,-0.7498,0.3592,0.3889,left-right
2024-06-04 18:58:22.251169,113504,11060,78.9,2.4,69.5,-0.7235,0.4725,0.3689,left-right
2024-06-04 18:58:22.261169,113504,11061,78.7,2.7,69.6,-0.6976,0.5921,0.3513,left-right
2024-06-04 18:58:22.271169,113504,11062,78.6,3.0,69.6,-0.6663,0.7059,0.3338,left-right
2024-06-04 18:58:22.281169,113504,11063,78.4,3.3,69.6,-0.6331,0.8177,0.3108,left-right
2024-06-04 18:58:22.291169,113504,11064,78.3,3.6,69.6,-0.6009,0.95,0.28,left-right
2024-06-04 18:58:22.301169,113504,11065,78.2,4.0,69.6,-0.5667,1.098,0.2459,left-right
2024-06-04 18:58:22.311169,113512,11066,78.0,4.4,69.7,-0.5228,1.2396,0.2102,left-right
2024-06-04 18:58:22.321169,113512,11067,77.9,4.8,69.7,-0.4749,1.3685,0.1751,left-right
2024-06-04 18:58:22.331169,113512,11068,77.9,5.2,69.7,-0.4407,1.4808,0.1419,left-right
2024-06-04 18:58:22.341169,113624,11069,72.4,36.3,71.1,-0.431,1.5662,0.1145,left-right
2024-06-04 18:58:22.351169,113624,11070,72.3,36.6,71.1,-0.4163,1.6194,0.0847,left-right
2024-06-04 18:58:22.361169,113624,11071,72.3,36.8,71.1,-0.3944,1.6356,0.0515,left-right
2024-06-04 18:58:22.371169,113624,11072,72.3,37.1,71.1,-0.3919,1.6282,0.0281,left-right
2024-06-04 18:58:22.381169,113624,11073,72.4,37.3,71.1,-0.3958,1.6092,0.0188,left-right
2024-06-04 18:58:22.391169,113624,11074,72.4,37.6,71.2,-0.3895,1.5901,0.0227,left-right
2024-06-04 18:58:22.401169,113632,11075,72.5,37.8,71.2,-0.3851,1.5687,0.033,left-right
2024-06-04 18:58:22.411169,113632,11076,72.6,38.0,71.3,-0.3953,1.5252,0.0422,left-right
2024-06-04 18:58:22.421169,113632,11077,72.7,38.2,71.3,-0.4163,1.4588,0.0491,left-right
2024-06-04 18:58:22.431169,113632,11078,72.8,38.3,71.4,-0.4481,1.3729,0.0564,left-right
2024-06-04 18:58:22.441169,113632,11079,73.0,38.5,71.4,-0.491,1.2625,0.0696,left-right
2024-06-04 18:58:22.451169,113632,11080,73.1,38.6,71.5,-0.5413,1.1409,0.0891,left-right
2024-06-04 18:58:22.461169,113640,11081,73.3,38.7,71.6,-0.5965,1.034,0.116,left-right
2024-06-04 18:58:22.471169,113744,11082,86.3,43.7,75.5,-0.6546,0.9564,0.1487,left-right
2024-06-04 18:58:22.481169,113744,11083,86.5,43.7,75.6,-0.7098,0.8943,0.1848,left-right
2024-06-04 18:58:22.491169,113752,11084,86.6,43.7,75.6,-0.7552,0.8113,0.2263,left-right
2024-06-04 18:58:22.501169,113752,11085,86.8,43.6,75.7,-0.8011,0.6981,0.2644,left-right
2024-06-04 18:58:22.511169,113752,11086,86.9,43.5,75.7,-0.846,0.5814,0.2991,left-right
2024-06-04 18:58:22.521169,113752,11087,87.0,43.3,75.7,-0.8665,0.4857,0.3323,left-right
2024-06-04 18:58:22.531169,113752,11088,87.1,43.1,75.7,-0.8514,0.4261,0.366,left-right
2024-06-04 18:58:22.541169,113752,11089,87.2,42.9,75.6,-0.8182,0.4188,0.3826,left-right
2024-06-04 18:58:22.551169,113760,11090,87.3,42.7,75.6,-0.8568,0.4495,0.3933,left-right
2024-06-04 18:58:22.561169,113760,11091,87.4,42.5,75.6,-1.0037,0.4188,0.4544,left-right
2024-06-04 18:58:22.571169,113760,11092,87.6,42.3,75.6,-1.1087,0.2576,0.5056,left-right
2024-06-04 18:58:22.581169,113760,11093,87.7,42.0,75.6,-1.0946,0.0311,0.4895,left-right
2024-06-04 18:58:22.591169,113760,11094,87.8,41.7,75.6,-1.0369,-0.1441,0.4646,left-right
2024-06-04 18:58:22.601169,113872,11095,96.2,19.0,73.6,-0.9906,-0.214,0.4539,left-right
2024-06-04 18:58:22.611169,113872,11096,96.3,18.9,73.6,-0.9481,-0.2359,0.449,left-right
2024-06-04 18:58:22.621169,113872,11097,96.4,18.6,73.5,-0.9198,-0.2867,0.4524,left-right
2024-06-04 18:58:22.631169,113872,11098,96.5,18.4,73.5,-0.9407,-0.3775,0.4661,left-right
2024-06-04 18:58:22.641169,113880,11099,96.5,18.1,73.4,-0.9959,-0.4806,0.489,left-right
2024-06-04 18:58:22.651169,113880,11100,96.6,17.8,73.4,-1.076,-0.5836,0.5173,left-right
2024-06-04 18:58:22.661169,113880,11101,96.7,17.5,73.3,-1.1243,-0.6847,0.5408,left-right
2024-06-04 18:58:22.671169,113880,11102,96.7,17.2,73.3,-1.1248,-0.7774,0.5584,left-right
2024-06-04 18:58:22.681169,113880,11103,96.8,16.9,73.2,-1.1361,-0.8487,0.5701,left-right
2024-06-04 18:58:22.691169,113880,11104,96.8,16.6,73.1,-1.1634,-0.8868,0.5857,left-right
2024-06-04 18:58:22.701169,113888,11105,96.8,16.3,73.1,-1.1981,-0.9054,0.6047,left-right
2024-06-04 18:58:22.711169,113888,11106,96.8,16.0,73.0,-1.2259,-0.9185,0.6199,left-right
2024-06-04 18:58:22.721169,113888,11107,96.8,15.8,72.9,-1.2552,-0.9376,0.6301,left-right
2024-06-04 18:58:22.731169,114000,11108,94.3,-4.9,68.4,-1.2767,-0.9381,0.6321,left-right
2024-06-04 18:58:22.741169,114000,11109,94.3,-5.1,68.4,-1.2845,-0.9117,0.6248,left-right
2024-06-04 18:58:22.751169,114000,11110,94.2,-5.2,68.4,-1.2874,-0.8643,0.6135,left-right
2024-06-04 18:58:22.761169,114000,11111,94.1,-5.3,68.4,-1.2957,-0.8028,0.6072,left-right
2024-06-04 18:58:22.771169,114000,11112,94.0,-5.5,68.4,-1.307,-0.7223,0.6106,left-right
2024-06-04 18:58:22.781169,114000,11113,94.0,-5.6,68.4,-1.3021,-0.6153,0.6209,left-right
2024-06-04 18:58:22.791169,114008,11114,93.8,-5.6,68.4,-1.2933,-0.4991,0.6375,left-right
2024-06-04 18:58:22.801169,114008,11115,93.7,-5.7,68.4,-1.2845,-0.3829,0.6526,left-right
2024-06-04 18:58:22.811169,114008,11116,93.6,-5.7,68.4,-1.2694,-0.2808,0.6604,left-right
2024-06-04 18:58:22.821169,114008,11117,93.5,-5.6,68.4,-1.2366,-0.1925,0.6575,left-right
2024-06-04 18:58:22.831169,114008,11118,93.4,-5.6,68.4,-1.1844,-0.0973,0.6414,left-right
2024-06-04 18:58:22.841169,114008,11119,93.2,-5.5,68.5,-1.1219,0.0174,0.6116,left-right
2024-06-04 18:58:22.851169,114008,11120,93.1,-5.4,68.5,-1.055,0.139,0.5745,left-right
2024-06-04 18:58:22.861169,114120,11121,80.9,5.0,69.3,-1.0003,0.263,0.5369,left-right
2024-06-04 18:58:22.871169,114120,11122,80.7,5.2,69.3,-0.9481,0.3851,0.5022,left-right
2024-06-04 18:58:22.881169,114128,11123,80.6,5.3,69.3,-0.8934,0.4876,0.4666,left-right
2024-06-04 18:58:22.891169,114128,11124,80.4,5.5,69.4,-0.8372,0.5877,0.428,left-right
2024-06-04 18:58:22.901169,114128,11125,80.3,5.8,69.4,-0.7703,0.7015,0.3865,left-right
2024-06-04 18:58:22.911169,114128,11126,80.2,6.0,69.4,-0.6971,0.8245,0.345,left-right
2024-06-04 18:58:22.921169,114128,11127,80.1,6.3,69.5,-0.6297,0.951,0.301,left-right
2024-06-04 18:58:22.931169,114128,11128,80.0,6.7,69.5,-0.5648,1.0794,0.2459,left-right
2024-06-04 18:58:22.941169,114128,11129,79.9,7.0,69.6,-0.4979,1.1917,0.1765,left-right
2024-06-04 18:58:22.951169,114136,11130,79.8,7.4,69.6,-0.431,1.262,0.1013,left-right
2024-06-04 18:58:22.961169,114136,11131,79.7,7.8,69.7,-0.3778,1.306,0.0291,left-right
2024-06-04 18:58:22.971169,114136,11132,79.7,8.2,69.8,-0.3538,1.3167,-0.0338,left-right
2024-06-04 18:58:22.981169,114248,11133,78.5,37.8,77.4,-0.346,1.2996,-0.0792,left-right
2024-06-04 18:58:22.991169,114248,11134,78.5,38.0,77.5,-0.3377,1.2825,-0.1085,left-right
2024-06-04 18:58:23.001169,114248,11135,78.5,38.3,77.6,-0.3343,1.2645,-0.1271,left-right
2024-06-04 18:58:23.011169,114248,11136,78.5,38.5,77.6,-0.3377,1.2381,-0.1364,left-right
2024-06-04 18:58:23.021169,114248,11137,78.6,38.7,77.7,-0.348,1.2034,-0.1364,left-right
2024-06-04 18:58:23.031169,114256,11138,78.7,38.9,77.8,-0.3729,1.18,-0.1242,left-right
2024-06-04 18:58:23.041169,114256,11139,78.7,39.1,77.9,-0.4066,1.1727,-0.1032,left-right
2024-06-04 18:58:23.051169,114256,11140,78.8,39.3,77.9,-0.4212,1.1859,-0.0817,left-right
2024-06-04 18:58:23.061169,114256,11141,78.8,39.5,78.0,-0.4193,1.2147,-0.0631,left-right
2024-06-04 18:58:23.071169,114256,11142,78.9,39.7,78.1,-0.4227,1.2488,-0.0441,left-right
2024-06-04 18:58:23.081169,114256,11143,79.0,39.8,78.1,-0.4368,1.2664,-0.0245,left-right
2024-06-04 18:58:23.091169,114256,11144,79.1,40.0,78.1,-0.4481,1.2532,-0.0079,left-right
2024-06-04 18:58:23.101169,114264,11145,79.2,40.2,78.2,-0.4491,1.2244,0.0081,left-right
2024-06-04 18:58:23.111169,114368,11146,89.5,51.0,80.8,-0.4486,1.1907,0.0266,left-right
2024-06-04 18:58:23.121169,114376,11147,89.6,51.0,80.9,-0.4486,1.1487,0.052,left-right
2024-06-04 18:58:23.131169,114376,11148,89.7,51.0,80.9,-0.4491,1.1102,0.0872,left-right
2024-06-04 18:58:23.141169,114376,11149,89.8,51.0,80.9,-0.4564,1.0735,0.1292,left-right
2024-06-04 18:58:23.151169,114376,11150,90.0,51.0,80.9,-0.492,1.0062,0.1746,left-right
2024-06-04 18:58:23.161169,114376,11151,90.1,51.0,80.9,-0.5526,0.9085,0.2195,left-right
2024-06-04 18:58:23.171169,114376,11152,90.2,50.9,80.9,-0.617,0.7908,0.261,left-right
2024-06-04 18:58:23.181169,114376,11153,90.3,50.8,80.9,-0.6746,0.6551,0.3015,left-right
2024-06-04 18:58:23.191169,114384,11154,90.4,50.6,80.8,-0.7166,0.5193,0.343,left-right
2024-06-04 18:58:23.201169,114384,11155,90.4,50.4,80.7,-0.7542,0.4022,0.3894,left-right
2024-06-04 18:58:23.211169,114384,11156,90.4,50.1,80.6,-0.7977,0.3001,0.4397,left-right
2024-06-04 18:58:23.221169,114384,11157,90.5,49.8,80.4,-0.8436,0.2083,0.4851,left-right
2024-06-04 18:58:23.231169,114384,11158,90.5,49.5,80.3,-0.8846,0.1497,0.5217,left-right
2024-06-04 18:58:23.241169,114496,11159,96.8,26.6,71.1,-0.9207,0.1111,0.5554,left-right
2024-06-04 18:58:23.251169,114496,11160,96.9,26.4,71.0,-0.9827,0.0272,0.5852,left-right
2024-06-04 18:58:23.261169,114496,11161,97.0,26.2,70.9,-1.0555,-0.1002,0.614,left-right
2024-06-04 18:58:23.271169,114504,11162,97.1,25.9,70.8,-1.1229,-0.2257,0.6404,left-right
2024-06-04 18:58:23.281169,114504,11163,97.2,25.7,70.8,-1.1834,-0.3365,0.6506,left-right
2024-06-04 18:58:23.291169,114504,11164,97.3,25.4,70.7,-1.2401,-0.4215,0.656,left-right
2024-06-04 18:58:23.301169,114504,11165,97.4,25.1,70.7,-1.2899,-0.4825,0.6619,left-right
2024-06-04 18:58:23.311169,114504,11166,97.4,24.8,70.6,-1.3172,-0.526,0.6697,left-right
2024-06-04 18:58:23.321169,114504,11167,97.5,24.5,70.6,-1.3524,-0.5733,0.6726,left-right
2024-06-04 18:58:23.331169,114504,11168,97.6,24.2,70.6,-1.3988,-0.6246,0.6741,left-right
2024-06-04 18:58:23.341169,114512,11169,97.6,23.9,70.5,-1.432,-0.67,0.6843,left-right
2024-06-04 18:58:23.351169,114512,11170,97.7,23.6,70.5,-1.4461,-0.7232,0.6897,left-right
2024-06-04 18:58:23.361169,114512,11171,97.7,23.3,70.5,-1.4583,-0.7799,0.6824,left-right
2024-06-04 18:58:23.371169,114624,11172,99.9,1.6,69.7,-1.47,-0.8321,0.6677,left-right
2024-06-04 18:58:23.381169,114624,11173,99.9,1.5,69.7,-1.4642,-0.877,0.6536,left-right
2024-06-04 18:58:23.391169,114624,11174,99.9,1.3,69.7,-1.4359,-0.9093,0.6389,left-right
2024-06-04 18:58:23.401169,114624,11175,99.9,1.1,69.7,-1.4007,-0.9098,0.6218,left-right
2024-06-04 18:58:23.411169,114624,11176,99.8,0.9,69.7,-1.3607,-0.8873,0.6033,left-right
2024-06-04 18:58:23.421169,114624,11177,99.8,0.7,69.7,-1.304,-0.8458,0.5833,left-right
2024-06-04 18:58:23.431169,114632,11178,99.7,0.6,69.7,-1.2347,-0.7828,0.5637,left-right
2024-06-04 18:58:23.441169,114632,11179,99.6,0.4,69.8,-1.1644,-0.7076,0.5471,left-right
2024-06-04 18:58:23.451169,114632,11180,99.5,0.3,69.8,-1.0926,-0.6158,0.5354,left-right
2024-06-04 18:58:23.461169,114632,11181,99.5,0.2,69.8,-1.0291,-0.5186,0.5261,left-right
2024-06-04 18:58:23.471169,114632,11182,99.4,0.1,69.8,-0.972,-0.4312,0.5159,left-right
2024-06-04 18:58:23.481169,114632,11183,99.3,0.0,69.8,-0.9207,-0.3497,0.5051,left-right
2024-06-04 18:58:23.491169,114640,11184,99.1,0.0,69.8,-0.8797,-0.2808,0.4939,left-right
2024-06-04 18:58:23.501169,114744,11185,89.5,-3.2,68.3,-0.8514,-0.2203,0.4783,left-right
2024-06-04 18:58:23.511169,114744,11186,89.4,-3.2,68.3,-0.8289,-0.1549,0.4578,left-right
2024-06-04 18:58:23.521169,114752,11187,89.3,-3.2,68.3,-0.8021,-0.0846,0.4387,left-right
2024-06-04 18:58:23.531169,114752,11188,89.2,-3.1,68.3,-0.7806,-0.0089,0.4246,left-right
2024-06-04 18:58:23.541169,114752,11189,89.1,-3.1,68.3,-0.7757,0.0565,0.4094,left-right
2024-06-04 18:58:23.551169,114752,11190,89.0,-3.0,68.3,-0.7708,0.1107,0.4006,left-right
2024-06-04 18:58:23.561169,114752,11191,88.9,-2.9,68.3,-0.7537,0.1712,0.4026,left-right
2024-06-04 18:58:23.571169,114752,11192,88.8,-2.8,68.3,-0.7493,0.2318,0.4002,left-right
2024-06-04 18:58:23.581169,114760,11193,88.7,-2.6,68.4,-0.762,0.2899,0.3919,left-right
2024-06-04 18:58:23.591169,114760,11194,88.6,-2.5,68.4,-0.7742,0.3538,0.3801,left-right
2024-06-04 18:58:23.601169,114760,11195,88.5,-2.3,68.4,-0.765,0.4261,0.3655,left-right
2024-06-04 18:58:23.611169,114760,11196,88.4,-2.0,68.4,-0.7283,0.514,0.3455,left-right
2024-06-04 18:58:23.621169,114760,11197,88.3,-1.8,68.4,-0.6859,0.6048,0.3196,left-right
2024-06-04 18:58:23.631169,114872,11198,78.7,19.3,69.5,-0.6458,0.6893,0.2883,left-right
2024-06-04 18:58:23.641169,114872,11199,78.6,19.5,69.5,-0.6151,0.7664,0.2473,left-right
2024-06-04 18:58:23.651169,114872,11200,78.5,19.7,69.5,-0.6043,0.8304,0.2029,left-right
2024-06-04 18:58:23.661169,114872,11201,78.4,19.9,69.5,-0.6053,0.8914,0.1624,left-right
2024-06-04 18:58:23.671169,114880,11202,78.3,20.2,69.5,-0.6077,0.9593,0.1243,left-right
2024-06-04 18:58:23.681169,114880,11203,78.2,20.4,69.5,-0.6136,1.0364,0.0852,left-right
2024-06-04 18:58:23.691169,114880,11204,78.2,20.7,69.6,-0.6185,1.1356,0.0437,left-right
2024-06-04 18:58:23.701169,114880,11205,78.1,21.0,69.6,-0.6033,1.2459,0.0017,left-right
2024-06-04 18:58:23.711169,114880,11206,78.1,21.3,69.7,-0.5887,1.3392,-0.0421,left-right
2024-06-04 18:58:23.721169,114880,11207,78.1,21.6,69.8,-0.5946,1.4227,-0.0797,left-right
2024-06-04 18:58:23.731169,114888,11208,78.1,21.9,69.8,-0.5931,1.4901,-0.1007,left-right
2024-06-04 18:58:23.741169,114888,11209,78.1,22.2,69.9,-0.5946,1.5291,-0.1061,left-right
2024-06-04 18:58:23.751169,114888,11210,78.1,22.5,70.0,-0.6082,1.5604,-0.1002,left-right
2024-06-04 18:58:23.761169,115000,11211,84.0,43.2,76.0,-0.6082,1.5926,-0.087,left-right
2024-06-04 18:58:23.771169,115000,11212,84.1,43.3,76.1,-0.5911,1.6087,-0.0646,left-right
2024-06-04 18:58:23.781169,115000,11213,84.2,43.5,76.2,-0.5706,1.5804,-0.0324,left-right
2024-06-04 18:58:23.791169,115000,11214,84.3,43.6,76.2,-0.5667,1.5125,0.0007,left-right
2024-06-04 18:58:23.801169,115000,11215,84.5,43.7,76.3,-0.5789,1.4202,0.0325,left-right
2024-06-04 18:58:23.811169,115000,11216,84.6,43.8,76.4,-0.5848,1.3109,0.0642,left-right
2024-06-04 18:58:23.821169,115008,11217,84.8,43.9,76.5,-0.5828,1.1995,0.0969,left-right
2024-06-04 18:58:23.831169,115008,11218,84.9,44.0,76.5,-0.5833,1.0984,0.1306,left-right
2024-06-04 18:58:23.841169,115008,11219,85.1,44.0,76.5,-0.5726,1.0135,0.1624,left-right
2024-06-04 18:58:23.851169,115008,11220,85.2,44.1,76.6,-0.5408,0.9525,0.1941,left-right
2024-06-04 18:58:23.861169,115008,11221,85.3,44.1,76.6,-0.5072,0.9109,0.2332,left-right
2024-06-04 18:58:23.871169,115008,11222,85.5,44.1,76.5,-0.4891,0.8582,0.2791,left-right
2024-06-04 18:58:23.881169,115008,11223,85.6,44.2,76.5,-0.5013,0.7693,0.3264,left-right
2024-06-04 18:58:23.891169,115120,11224,95.9,42.1,70.1,-0.5604,0.6404,0.3728,left-right
2024-06-04 18:58:23.901169,115120,11225,96.1,42.0,70.0,-0.6453,0.4734,0.4172,left-right
2024-06-04 18:58:23.911169,115128,11226,96.2,41.8,70.0,-0.7147,0.2938,0.4627,left-right
2024-06-04 18:58:23.921169,115128,11227,96.3,41.5,69.9,-0.7689,0.1282,0.5037,left-right
2024-06-04 18:58:23.931169,115128,11228,96.4,41.2,69.8,-0.8568,-0.0015,0.5354,left-right
2024-06-04 18:58:23.941169,115128,11229,96.5,40.9,69.8,-0.8802,-0.067,0.5676,left-right
2024-06-04 18:58:23.951169,115128,11230,96.6,40.5,69.7,-0.8778,-0.0919,0.5925,left-right
2024-06-04 18:58:23.961169,115128,11231,96.7,40.2,69.6,-0.9442,-0.1251,0.6077,left-right
2024-06-04 18:58:23.971169,115128,11232,96.8,39.8,69.6,-1.0257,-0.193,0.6267,left-right
2024-06-04 18:58:23.981169,115136,11233,96.9,39.4,69.5,-1.1131,-0.295,0.6502,left-right
2024-06-04 18:58:23.991169,115136,11234,96.9,39.0,69.5,-1.1771,-0.4395,0.6629,left-right
2024-06-04 18:58:24.001169,115136,11235,97.0,38.6,69.5,-1.2366,-0.5865,0.6653,left-right
2024-06-04 18:58:24.011169,115248,11236,103.8,8.5,68.1,-1.2845,-0.6768,0.6741,left-right
2024-06-04 18:58:24.021169,115248,11237,103.8,8.2,68.0,-1.3128,-0.732,0.6809,left-right
2024-06-04 18:58:24.031169,115248,11238,103.9,7.9,68.0,-1.345,-0.7765,0.6751,left-right
2024-06-04 18:58:24.041169,115248,11239,103.9,7.6,68.0,-1.3646,-0.8053,0.6692,left-right
2024-06-04 18:58:24.051169,115248,11240,104.0,7.3,68.0,-1.3533,-0.8214,0.6702,left-right
2024-06-04 18:58:24.061169,115256,11241,104.0,7.0,68.0,-1.3514,-0.8263,0.6638,left-right
2024-06-04 18:58:24.071169,115256,11242,104.0,6.7,68.0,-1.3646,-0.8267,0.6575,left-right
2024-06-04 18:58:24.081169,115256,11243,104.0,6.4,68.0,-1.3665,-0.8375,0.658,left-right
2024-06-04 18:58:24.091169,115256,11244,104.0,6.2,68.1,-1.3436,-0.8531,0.6482,left-right
2024-06-04 18:58:24.101169,115256,11245,104.0,5.9,68.1,-1.3089,-0.8634,0.6253,left-right
2024-06-04 18:58:24.111169,115256,11246,103.9,5.7,68.1,-1.2772,-0.8717,0.6004,left-right
2024-06-04 18:58:24.121169,115256,11247,103.9,5.5,68.2,-1.22,-0.8746,0.5823,left-right
2024-06-04 18:58:24.131169,115264,11248,103.8,5.2,68.2,-1.1595,-0.8663,0.5569,left-right
2024-06-04 18:58:24.141169,115368,11249,97.6,-11.8,69.4,-1.1258,-0.8438,0.5271,left-right
2024-06-04 18:58:24.151169,115376,11250,97.5,-11.9,69.4,-1.0931,-0.7974,0.5086,left-right
2024-06-04 18:58:24.161169,115376,11251,97.4,-12.1,69.5,-1.0521,-0.7315,0.4929,left-right
2024-06-04 18:58:24.171169,115376,11252,97.3,-12.2,69.5,-1.0106,-0.6539,0.4778,left-right
2024-06-04 18:58:24.181169,115376,11253,97.2,-12.2,69.6,-0.9764,-0.567,0.4646,left-right
2024-06-04 18:58:24.191169,115376,11254,97.1,-12.3,69.6,-0.9403,-0.4859,0.4485,left-right
2024-06-04 18:58:24.201169,115376,11255,97.0,-12.3,69.7,-0.9002,-0.4234,0.4304,left-right
2024-06-04 18:58:24.211169,115376,11256,96.9,-12.3,69.7,-0.8714,-0.3746,0.4163,left-right
2024-06-04 18:58:24.221169,115384,11257,96.8,-12.3,69.8,-0.8533,-0.3306,0.4089,left-right
2024-06-04 18:58:24.231169,115384,11258,96.7,-12.3,69.8,-0.8392,-0.2838,0.4021,left-right
2024-06-04 18:58:24.241169,115384,11259,96.6,-12.3,69.8,-0.8358,-0.2428,0.3953,left-right
2024-06-04 18:58:24.251169,115384,11260,96.5,-12.3,69.9,-0.8299,-0.2105,0.3884,left-right
2024-06-04 18:58:24.261169,115384,11261,96.3,-12.2,69.9,-0.8182,-0.171,0.3787,left-right
2024-06-04 18:58:24.271169,115496,11262,85.2,-7.5,71.5,-0.8201,-0.1251,0.3655,left-right
2024-06-04 18:58:24.281169,115496,11263,85.1,-7.5,71.5,-0.8289,-0.066,0.3547,left-right
2024-06-04 18:58:24.291169,115496,11264,84.9,-7.4,71.6,-0.8289,0.0101,0.3464,left-right
2024-06-04 18:58:24.301169,115504,11265,84.8,-7.3,71.6,-0.8245,0.0828,0.3377,left-right
2024-06-04 18:58:24.311169,115504,11266,84.7,-7.1,71.7,-0.8133,0.158,0.3313,left-right
2024-06-04 18:58:24.321169,115504,11267,84.5,-6.9,71.7,-0.7879,0.2698,0.3264,left-right
2024-06-04 18:58:24.331169,115504,11268,84.4,-6.7,71.7,-0.7528,0.4041,0.3128,left-right
2024-06-04 18:58:24.341169,115504,11269,84.2,-6.4,71.8,-0.7244,0.5389,0.2913,left-right
2024-06-04 18:58:24.351169,115504,11270,84.1,-6.1,71.8,-0.6976,0.6741,0.2678,left-right
2024-06-04 18:58:24.361169,115504,11271,84.0,-5.8,71.9,-0.6585,0.8265,0.2429,left-right
2024-06-04 18:58:24.371169,115512,11272,83.9,-5.4,71.9,-0.6292,0.9984,0.2083,left-right
2024-06-04 18:58:24.381169,115512,11273,83.8,-5.0,72.0,-0.6102,1.1727,0.1643,left-right
2024-06-04 18:58:24.391169,115512,11274,83.7,-4.6,72.0,-0.6004,1.3441,0.1135,left-right
2024-06-04 18:58:24.401169,115624,11275,77.7,26.1,76.4,-0.6068,1.4915,0.0603,left-right
2024-06-04 18:58:24.411169,115624,11276,77.6,26.4,76.4,-0.6219,1.6058,0.0105,left-right
2024-06-04 18:58:24.421169,115624,11277,77.6,26.6,76.5,-0.6536,1.6702,-0.0285,left-right
2024-06-04 18:58:24.431169,115624,11278,77.7,26.9,76.5,-0.6834,1.6893,-0.0582,left-right
2024-06-04 18:58:24.441169,115624,11279,77.7,27.2,76.6,-0.6854,1.6658,-0.0885,left-right
2024-06-04 18:58:24.451169,115624,11280,77.8,27.5,76.7,-0.6702,1.6014,-0.1105,left-right
2024-06-04 18:58:24.461169,115632,11281,77.9,27.7,76.8,-0.6439,1.5076,-0.1203,left-right
2024-06-04 18:58:24.471169,115632,11282,78.0,27.9,76.9,-0.6361,1.4085,-0.1193,left-right
2024-06-04 18:58:24.481169,115632,11283,78.1,28.1,77.0,-0.6585,1.3221,-0.1085,left-right
2024-06-04 18:58:24.491169,115632,11284,78.2,28.3,77.1,-0.6712,1.2274,-0.0885,left-right
2024-06-04 18:58:24.501169,115632,11285,78.3,28.4,77.2,-0.6639,1.1414,-0.0631,left-right
2024-06-04 18:58:24.511169,115632,11286,78.5,28.6,77.3,-0.6434,1.0887,-0.0328,left-right
2024-06-04 18:58:24.521169,115640,11287,78.6,28.7,77.3,-0.6092,1.0604,-0.0016,left-right
2024-06-04 18:58:24.531169,115744,11288,90.4,39.4,81.2,-0.5838,1.0257,0.0349,left-right
2024-06-04 18:58:24.541169,115744,11289,90.5,39.5,81.2,-0.5643,0.9691,0.0769,left-right
2024-06-04 18:58:24.551169,115752,11290,90.6,39.5,81.3,-0.5467,0.9046,0.1184,left-right
2024-06-04 18:58:24.561169,115752,11291,90.8,39.6,81.3,-0.5399,0.8475,0.1604,left-right
2024-06-04 18:58:24.571169,115752,11292,90.9,39.6,81.3,-0.5286,0.8001,0.2058,left-right
2024-06-04 18:58:24.581169,115752,11293,91.0,39.6,81.2,-0.5159,0.7493,0.2522,left-right
2024-06-04 18:58:24.591169,115752,11294,91.1,39.6,81.2,-0.5272,0.6707,0.2981,left-right
2024-06-04 18:58:24.601169,115752,11295,91.2,39.5,81.1,-0.5775,0.5447,0.3435,left-right
2024-06-04 18:58:24.611169,115760,11296,91.3,39.4,81.0,-0.6561,0.3748,0.3855,left-right
2024-06-04 18:58:24.621169,115760,11297,91.4,39.2,80.8,-0.7323,0.1805,0.4255,left-right
2024-06-04 18:58:24.631169,115760,11298,91.5,38.9,80.7,-0.7791,0.0184,0.4617,left-right
2024-06-04 18:58:24.641169,115760,11299,91.5,38.6,80.5,-0.8167,-0.0606,0.4973,left-right
2024-06-04 18:58:24.651169,115760,11300,91.6,38.3,80.4,-0.8719,-0.0953,0.5388,left-right
2024-06-04 18:58:24.661169,115872,11301,101.3,14.1,70.7,-0.9681,-0.1817,0.5779,left-right
2024-06-04 18:58:24.671169,115872,11302,101.5,13.8,70.6,-1.0819,-0.3404,0.6047,left-right
2024-06-04 18:58:24.681169,115872,11303,101.6,13.6,70.5,-1.1644,-0.4874,0.6292,left-right
2024-06-04 18:58:24.691169,115872,11304,101.7,13.3,70.4,-1.2327,-0.608,0.6443,left-right
2024-06-04 18:58:24.701169,115880,11305,101.8,13.0,70.4,-1.3045,-0.6973,0.6419,left-right
2024-06-04 18:58:24.711169,115880,11306,101.9,12.7,70.3,-1.367,-0.794,0.638,left-right
2024-06-04 18:58:24.721169,115880,11307,102.0,12.4,70.3,-1.4061,-0.921,0.635,left-right
2024-06-04 18:58:24.731169,115880,11308,102.1,12.1,70.3,-1.4154,-1.0147,0.6296,left-right
2024-06-04 18:58:24.741169,115880,11309,102.2,11.8,70.2,-1.4774,-1.129,0.6311,left-right
2024-06-04 18:58:24.751169,115880,11310,102.2,11.5,70.2,-1.4793,-1.1646,0.6311,left-right
2024-06-04 18:58:24.761169,115888,11311,102.2,11.2,70.2,-1.4188,-1.1554,0.617,left-right
2024-06-04 18:58:24.771169,115888,11312,102.2,11.0,70.2,-1.4022,-1.1983,0.5989,left-right
2024-06-04 18:58:24.781169,115888,11313,102.2,10.7,70.2,-1.3773,-1.2105,0.5818,left-right
2024-06-04 18:58:24.791169,116000,11314,100.3,-10.3,70.3,-1.3397,-1.191,0.5686,left-right
2024-06-04 18:58:24.801169,116000,11315,100.2,-10.4,70.3,-1.2684,-1.1368,0.5564,left-right
2024-06-04 18:58:24.811169,116000,11316,100.2,-10.6,70.3,-1.1951,-1.0758,0.5422,left-right
2024-06-04 18:58:24.821169,116000,11317,100.1,-10.8,70.4,-1.138,-1.0206,0.5271,left-right
2024-06-04 18:58:24.831169,116000,11318,100.1,-10.9,70.4,-1.0892,-0.9635,0.5105,left-right
2024-06-04 18:58:24.841169,116000,11319,100.0,-11.1,70.4,-1.0404,-0.8888,0.4959,left-right
2024-06-04 18:58:24.851169,116008,11320,99.9,-11.2,70.4,-0.9925,-0.8014,0.4797,left-right
2024-06-04 18:58:24.861169,116008,11321,99.8,-11.3,70.5,-0.951,-0.7115,0.4631,left-right
2024-06-04 18:58:24.871169,116008,11322,99.7,-11.4,70.5,-0.9222,-0.63,0.4534,left-right
2024-06-04 18:58:24.881169,116008,11323,99.6,-11.5,70.5,-0.9017,-0.5465,0.4485,left-right
2024-06-04 18:58:24.891169,116008,11324,99.4,-11.5,70.6,-0.8792,-0.4552,0.4421,left-right
2024-06-04 18:58:24.901169,116008,11325,99.3,-11.6,70.6,-0.8631,-0.3868,0.4309,left-right
2024-06-04 18:58:24.911169,116008,11326,99.2,-11.5,70.6,-0.8553,-0.3272,0.4143,left-right
2024-06-04 18:58:24.921169,116120,11327,88.9,-10.7,71.4,-0.8524,-0.2691,0.3972,left-right
2024-06-04 18:58:24.931169,116120,11328,88.8,-10.7,71.4,-0.866,-0.2496,0.3811,left-right
2024-06-04 18:58:24.941169,116128,11329,88.7,-10.6,71.5,-0.8997,-0.2501,0.3699,left-right
2024-06-04 18:58:24.951169,116128,11330,88.5,-10.6,71.5,-0.9193,-0.2164,0.3679,left-right
2024-06-04 18:58:24.961169,116128,11331,88.4,-10.5,71.6,-0.9115,-0.151,0.3684,left-right
2024-06-04 18:58:24.971169,116128,11332,88.3,-10.5,71.6,-0.8949,-0.0748,0.366,left-right
2024-06-04 18:58:24.981169,116128,11333,88.1,-10.3,71.7,-0.8753,0.0213,0.364,left-right
2024-06-04 18:58:24.991169,116128,11334,88.0,-10.2,71.7,-0.8465,0.1453,0.3567,left-right
2024-06-04 18:58:25.001169,116128,11335,87.8,-10.0,71.8,-0.8162,0.2845,0.343,left-right
2024-06-04 18:58:25.011169,116136,11336,87.7,-9.7,71.8,-0.7884,0.4373,0.3298,left-right
2024-06-04 18:58:25.021169,116136,11337,87.5,-9.5,71.9,-0.7528,0.5955,0.3152,left-right
2024-06-04 18:58:25.031169,116136,11338,87.4,-9.2,71.9,-0.7122,0.7254,0.2971,left-right
2024-06-04 18:58:25.041169,116248,11339,77.2,15.5,74.0,-0.6956,0.8343,0.2766,left-right
2024-06-04 18:58:25.051169,116248,11340,77.1,15.7,74.0,-0.701,0.9432,0.2473,left-right
2024-06-04 18:58:25.061169,116248,11341,77.0,16.0,74.0,-0.6951,1.0384,0.2166,left-right
2024-06-04 18:58:25.071169,116248,11342,76.9,16.3,74.0,-0.6776,1.1317,0.1868,left-right
2024-06-04 18:58:25.081169,116248,11343,76.8,16.6,74.0,-0.6444,1.2464,0.1458,left-right
2024-06-04 18:58:25.091169,116256,11344,76.7,17.0,74.0,-0.599,1.3484,0.0969,left-right
2024-06-04 18:58:25.101169,116256,11345,76.7,17.3,74.0,-0.5828,1.4144,0.0344,left-right
2024-06-04 18:58:25.111169,116256,11346,76.7,17.6,74.0,-0.5994,1.4661,-0.0343,left-right
2024-06-04 18:58:25.121169,116256,11347,76.7,18.0,74.1,-0.6063,1.4808,-0.0841,left-right
2024-06-04 18:58:25.131169,116256,11348,76.7,18.2,74.2,-0.6063,1.4705,-0.1251,left-right
2024-06-04 18:58:25.141169,116256,11349,76.7,18.5,74.2,-0.6195,1.4344,-0.1549,left-right
2024-06-04 18:58:25.151169,116256,11350,76.8,18.8,74.3,-0.6439,1.3743,-0.1647,left-right
2024-06-04 18:58:25.161169,116264,11351,76.9,19.0,74.4,-0.6678,1.3113,-0.1569,left-right
2024-06-04 18:58:25.171169,116368,11352,85.2,36.7,81.9,-0.6815,1.2371,-0.1325,left-right
2024-06-04 18:58:25.181169,116376,11353,85.3,36.8,82.0,-0.6942,1.158,-0.1017,left-right
2024-06-04 18:58:25.191169,116376,11354,85.4,36.9,82.1,-0.7108,1.0755,-0.0709,left-right
2024-06-04 18:58:25.201169,116376,11355,85.5,37.0,82.1,-0.7176,1.0081,-0.0402,left-right
2024-06-04 18:58:25.211169,116376,11356,85.6,37.1,82.2,-0.6932,0.9759,-0.0079,left-right
2024-06-04 18:58:25.221169,116376,11357,85.7,37.1,82.2,-0.6727,0.9715,0.0291,left-right
2024-06-04 18:58:25.231169,116376,11358,85.8,37.2,82.3,-0.6532,0.9539,0.0701,left-right
2024-06-04 18:58:25.241169,116376,11359,85.9,37.3,82.3,-0.6326,0.9139,0.1082,left-right
2024-06-04 18:58:25.251169,116384,11360,86.0,37.3,82.3,-0.6268,0.8817,0.1419,left-right
2024-06-04 18:58:25.261169,116384,11361,86.1,37.4,82.2,-0.6126,0.8607,0.1712,left-right
2024-06-04 18:58:25.271169,116384,11362,86.2,37.4,82.2,-0.6019,0.8211,0.2053,left-right
2024-06-04 18:58:25.281169,116384,11363,86.3,37.4,82.2,-0.6268,0.7308,0.2512,left-right
2024-06-04 18:58:25.291169,116384,11364,86.4,37.3,82.1,-0.6917,0.5823,0.3005,left-right
2024-06-04 18:58:25.301169,116496,11365,94.9,29.4,75.4,-0.741,0.4139,0.3416,left-right
2024-06-04 18:58:25.311169,116496,11366,95.0,29.3,75.3,-0.764,0.2664,0.3713,left-right
2024-06-04 18:58:25.321169,116496,11367,95.0,29.1,75.2,-0.8128,0.1478,0.3992,left-right
2024-06-04 18:58:25.331169,116504,11368,95.1,28.9,75.1,-0.8758,0.0472,0.4319,left-right
2024-06-04 18:58:25.341169,116504,11369,95.2,28.6,75.1,-0.9158,-0.0382,0.4631,left-right
2024-06-04 18:58:25.351169,116504,11370,95.3,28.4,75.0,-0.932,-0.0899,0.4866,left-right
2024-06-04 18:58:25.361169,116504,11371,95.4,28.1,74.9,-0.9442,-0.0929,0.4993,left-right
2024-06-04 18:58:25.371169,116504,11372,95.4,27.8,74.9,-0.9657,-0.1085,0.5134,left-right
2024-06-04 18:58:25.381169,116504,11373,95.5,27.5,74.8,-1.0125,-0.2052,0.5403,left-right
2024-06-04 18:58:25.391169,116504,11374,95.6,27.2,74.8,-1.0657,-0.3717,0.5588,left-right
2024-06-04 18:58:25.401169,116512,11375,95.7,26.8,74.7,-1.1209,-0.5865,0.5657,left-right
2024-06-04 18:58:25.411169,116512,11376,95.8,26.5,74.7,-1.1868,-0.7496,0.5608,left-right
2024-06-04 18:58:25.421169,116512,11377,95.9,26.1,74.6,-1.2532,-0.8565,0.5349,left-right
2024-06-04 18:58:25.431169,116624,11378,102.6,-0.4,73.2,-1.3138,-0.942,0.509,left-right
2024-06-04 18:58:25.441169,116624,11379,102.7,-0.6,73.2,-1.4061,-1.0577,0.5051,left-right
2024-06-04 18:58:25.451169,116624,11380,102.7,-0.9,73.2,-1.4393,-1.1021,0.4939,left-right
2024-06-04 18:58:25.461169,116624,11381,102.8,-1.1,73.2,-1.4476,-1.1178,0.4714,left-right
2024-06-04 18:58:25.471169,116624,11382,102.8,-1.3,73.2,-1.4837,-1.1954,0.4524,left-right
2024-06-04 18:58:25.481169,116624,11383,102.8,-1.5,73.2,-1.4534,-1.1964,0.4446,left-right
2024-06-04 18:58:25.491169,116632,11384,102.8,-1.7,73.2,-1.4198,-1.1646,0.4524,left-right
2024-06-04 18:58:25.501169,116632,11385,102.7,-1.9,73.2,-1.3949,-1.1246,0.469,left-right
2024-06-04 18:58:25.511169,116632,11386,102.7,-2.1,73.3,-1.3533,-1.0865,0.4788,left-right
2024-06-04 18:58:25.521169,116632,11387,102.7,-2.3,73.3,-1.2874,-1.0308,0.4793,left-right
2024-06-04 18:58:25.531169,116632,11388,102.6,-2.5,73.3,-1.222,-0.9581,0.4773,left-right
2024-06-04 18:58:25.541169,116632,11389,102.5,-2.7,73.3,-1.1624,-0.8858,0.4705,left-right
2024-06-04 18:58:25.551169,116640,11390,102.4,-2.8,73.3,-1.1092,-0.8155,0.4592,left-right
2024-06-04 18:58:25.561169,116744,11391,95.3,-13.7,73.3,-1.0692,-0.7486,0.4461,left-right
2024-06-04 18:58:25.571169,116744,11392,95.2,-13.8,73.3,-1.0277,-0.6856,0.4329,left-right
2024-06-04 18:58:25.581169,116752,11393,95.2,-13.8,73.3,-0.9803,-0.6241,0.4241,left-right
2024-06-04 18:58:25.591169,116752,11394,95.1,-13.9,73.4,-0.9368,-0.5484,0.4187,left-right
2024-06-04 18:58:25.601169,116752,11395,95.0,-13.9,73.4,-0.8934,-0.464,0.4192,left-right
2024-06-04 18:58:25.611169,116752,11396,94.9,-13.9,73.4,-0.8411,-0.3746,0.4241,left-right
2024-06-04 18:58:25.621169,116752,11397,94.8,-13.9,73.4,-0.7928,-0.2784,0.4275,left-right
2024-06-04 18:58:25.631169,116752,11398,94.7,-13.8,73.3,-0.7625,-0.1886,0.4295,left-right
2024-06-04 18:58:25.641169,116760,11399,94.6,-13.7,73.3,-0.7542,-0.1261,0.4255,left-right
2024-06-04 18:58:25.651169,116760,11400,94.5,-13.6,73.3,-0.7513,-0.0919,0.4119,left-right
2024-06-04 18:58:25.661169,116760,11401,94.4,-13.5,73.3,-0.7376,-0.0699,0.3865,left-right
2024-06-04 18:58:25.671169,116760,11402,94.4,-13.4,73.3,-0.724,-0.0391,0.3562,left-right
2024-06-04 18:58:25.681169,116760,11403,94.3,-13.3,73.3,-0.7127,-0.0011,0.3289,left-right
2024-06-04 18:58:25.691169,116872,11404,84.4,-3.9,72.8,-0.7044,0.0364,0.3025,left-right
2024-06-04 18:58:25.701169,116872,11405,84.3,-3.8,72.8,-0.702,0.0931,0.2786,left-right
2024-06-04 18:58:25.711169,116872,11406,84.2,-3.7,72.8,-0.7157,0.1727,0.259,left-right
2024-06-04 18:58:25.721169,116872,11407,84.0,-3.5,72.8,-0.7366,0.2728,0.2449,left-right
2024-06-04 18:58:25.731169,116880,11408,83.9,-3.3,72.9,-0.7513,0.388,0.2312,left-right
2024-06-04 18:58:25.741169,116880,11409,83.7,-3.0,72.9,-0.7576,0.5286,0.2166,left-right
2024-06-04 18:58:25.751169,116880,11410,83.6,-2.7,72.9,-0.7445,0.6927,0.2029,left-right
2024-06-04 18:58:25.761169,116880,11411,83.5,-2.4,73.0,-0.7166,0.8563,0.1873,left-right
2024-06-04 18:58:25.771169,116880,11412,83.3,-2.0,73.0,-0.6898,1.0057,0.1692,left-right
2024-06-04 18:58:25.781169,116880,11413,83.2,-1.6,73.0,-0.6761,1.1204,0.1487,left-right
2024-06-04 18:58:25.791169,116880,11414,83.2,-1.3,73.1,-0.6868,1.201,0.1243,left-right
2024-06-04 18:58:25.801169,116888,11415,83.1,-0.9,73.1,-0.7196,1.2581,0.0979,left-right
2024-06-04 18:58:25.811169,116888,11416,83.0,-0.6,73.2,-0.7459,1.2923,0.0759,left-right
2024-06-04 18:58:25.821169,117000,11417,79.4,26.9,76.9,-0.7396,1.3162,0.0584,left-right
2024-06-04 18:58:25.831169,117000,11418,79.3,27.2,76.9,-0.7274,1.3421,0.0437,left-right
2024-06-04 18:58:25.841169,117000,11419,79.3,27.4,76.9,-0.7323,1.3582,0.0359,left-right
2024-06-04 18:58:25.851169,117000,11420,79.3,27.7,76.9,-0.7381,1.3782,0.0286,left-right
2024-06-04 18:58:25.861169,117000,11421,79.4,27.9,77.0,-0.7313,1.407,0.0188,left-right
2024-06-04 18:58:25.871169,117000,11422,79.4,28.2,77.0,-0.7005,1.4359,0.011,left-right
2024-06-04 18:58:25.881169,117008,11423,79.5,28.4,77.1,-0.6688,1.47,0.0105,left-right
2024-06-04 18:58:25.891169,117008,11424,79.5,28.6,77.1,-0.6546,1.4744,0.0198,left-right
2024-06-04 18:58:25.901169,117008,11425,79.6,28.8,77.1,-0.6444,1.431,0.0335,left-right
2024-06-04 18:58:25.911169,117008,11426,79.7,29.0,77.2,-0.6341,1.3616,0.0505,left-right
2024-06-04 18:58:25.921169,117008,11427,79.8,29.2,77.2,-0.616,1.2967,0.0686,left-right
2024-06-04 18:58:25.931169,117008,11428,80.0,29.4,77.2,-0.6014,1.2357,0.0906,left-right
2024-06-04 18:58:25.941169,117008,11429,80.1,29.6,77.3,-0.5887,1.157,0.1165,left-right
2024-06-04 18:58:25.951169,117120,11430,91.0,42.1,77.6,-0.5662,1.0848,0.1453,left-right
2024-06-04 18:58:25.961169,117120,11431,91.1,42.2,77.7,-0.5501,1.0443,0.1775,left-right
2024-06-04 18:58:25.971169,117128,11432,91.2,42.3,77.7,-0.554,0.9959,0.2127,left-right
2024-06-04 18:58:25.981169,117128,11433,91.4,42.3,77.7,-0.5941,0.8987,0.2527,left-right
2024-06-04 18:58:25.991169,117128,11434,91.5,42.3,77.7,-0.6478,0.765,0.3015,left-right
2024-06-04 18:58:26.001169,117128,11435,91.7,42.2,77.7,-0.6981,0.6395,0.3504,left-right
2024-06-04 18:58:26.011169,117128,11436,91.8,42.1,77.6,-0.7489,0.5355,0.3914,left-right
2024-06-04 18:58:26.021169,117128,11437,91.9,42.0,77.5,-0.7957,0.4222,0.4275,left-right
2024-06-04 18:58:26.031169,117128,11438,92.0,41.7,77.5,-0.8289,0.3079,0.4597,left-right
2024-06-04 18:58:26.041169,117136,11439,92.1,41.5,77.4,-0.8441,0.2313,0.4876,left-right
2024-06-04 18:58:26.051169,117136,11440,92.2,41.2,77.3,-0.8533,0.1922,0.5134,left-right
2024-06-04 18:58:26.061169,117136,11441,92.3,41.0,77.2,-0.8807,0.1282,0.5398,left-right
2024-06-04 18:58:26.071169,117248,11442,103.7,19.5,70.8,-0.9383,0.0003,0.5584,left-right
2024-06-04 18:58:26.081169,117248,11443,103.8,19.3,70.7,-1.0018,-0.1925,0.5711,left-right
2024-06-04 18:58:26.091169,117248,11444,103.9,19.1,70.7,-1.0443,-0.3477,0.5701,left-right
2024-06-04 18:58:26.101169,117248,11445,104.1,18.8,70.6,-1.0814,-0.4454,0.5593,left-right
2024-06-04 18:58:26.111169,117248,11446,104.2,18.5,70.6,-1.1243,-0.5592,0.554,left-right
2024-06-04 18:58:26.121169,117256,11447,104.3,18.2,70.5,-1.1732,-0.6451,0.5476,left-right
2024-06-04 18:58:26.131169,117256,11448,104.4,17.9,70.5,-1.2127,-0.7096,0.5398,left-right
2024-06-04 18:58:26.141169,117256,11449,104.4,17.6,70.5,-1.2567,-0.7628,0.533,left-right
2024-06-04 18:58:26.151169,117256,11450,104.5,17.3,70.5,-1.3089,-0.8194,0.5305,left-right
2024-06-04 18:58:26.161169,117256,11451,104.6,17.0,70.5,-1.3221,-0.8668,0.5325,left-right
2024-06-04 18:58:26.171169,117256,11452,104.6,16.7,70.5,-1.3304,-0.9317,0.5369,left-right
2024-06-04 18:58:26.181169,117256,11453,104.6,16.4,70.4,-1.3475,-0.9879,0.5418,left-right
2024-06-04 18:58:26.191169,117264,11454,104.7,16.1,70.4,-1.3685,-1.0196,0.5462,left-right
2024-06-04 18:58:26.201169,117368,11455,104.7,-5.7,70.3,-1.3734,-1.0582,0.5545,left-right
2024-06-04 18:58:26.211169,117376,11456,104.7,-5.9,70.3,-1.3485,-1.0709,0.5618,left-right
2024-06-04 18:58:26.221169,117376,11457,104.7,-6.1,70.3,-1.3089,-1.045,0.5657,left-right
2024-06-04 18:58:26.231169,117376,11458,104.6,-6.3,70.3,-1.2518,-0.9835,0.5618,left-right
2024-06-04 18:58:26.241169,117376,11459,104.6,-6.4,70.3,-1.2054,-0.9215,0.5505,left-right
2024-06-04 18:58:26.251169,117376,11460,104.5,-6.6,70.3,-1.1595,-0.8658,0.5359,left-right
2024-06-04 18:58:26.261169,117376,11461,104.4,-6.7,70.4,-1.1014,-0.8106,0.5198,left-right
2024-06-04 18:58:26.271169,117376,11462,104.3,-6.9,70.4,-1.0433,-0.7428,0.5051,left-right
2024-06-04 18:58:26.281169,117384,11463,104.3,-7.0,70.4,-0.994,-0.6676,0.492,left-right
2024-06-04 18:58:26.291169,117384,11464,104.2,-7.1,70.4,-0.9525,-0.6012,0.4788,left-right
2024-06-04 18:58:26.301169,117384,11465,104.1,-7.2,70.4,-0.9105,-0.5289,0.47,left-right
2024-06-04 18:58:26.311169,117384,11466,104.0,-7.3,70.4,-0.8675,-0.4459,0.4675,left-right
2024-06-04 18:58:26.321169,117384,11467,103.8,-7.4,70.4,-0.8343,-0.3521,0.4695,left-right
2024-06-04 18:58:26.331169,117496,11468,94.5,-9.2,68.3,-0.8118,-0.2564,0.47,left-right
2024-06-04 18:58:26.341169,117496,11469,94.4,-9.2,68.3,-0.8011,-0.1793,0.4651,left-right
2024-06-04 18:58:26.351169,117496,11470,94.3,-9.2,68.3,-0.7987,-0.1109,0.4578,left-right
2024-06-04 18:58:26.361169,117504,11471,94.2,-9.1,68.3,-0.8148,-0.068,0.449,left-right
2024-06-04 18:58:26.371169,117504,11472,94.1,-9.0,68.3,-0.8485,-0.0665,0.4407,left-right
2024-06-04 18:58:26.381169,117504,11473,94.0,-8.9,68.3,-0.8768,-0.086,0.426,left-right
2024-06-04 18:58:26.391169,117504,11474,93.8,-8.9,68.3,-0.8905,-0.1012,0.3997,left-right
2024-06-04 18:58:26.401169,117504,11475,93.7,-8.8,68.4,-0.9163,-0.0924,0.3704,left-right
2024-06-04 18:58:26.411169,117504,11476,93.5,-8.8,68.5,-0.9378,-0.0465,0.3435,left-right
2024-06-04 18:58:26.421169,117504,11477,93.4,-8.7,68.6,-0.9217,0.0516,0.324,left-right
2024-06-04 18:58:26.431169,117512,11478,93.2,-8.6,68.7,-0.8944,0.1917,0.3137,left-right
2024-06-04 18:58:26.441169,117512,11479,93.0,-8.4,68.8,-0.8651,0.3528,0.3088,left-right
2024-06-04 18:58:26.451169,117512,11480,92.9,-8.2,68.9,-0.825,0.5267,0.3059,left-right
2024-06-04 18:58:26.461169,117624,11481,77.8,14.1,73.1,-0.7723,0.701,0.3069,left-right
2024-06-04 18:58:26.471169,117624,11482,77.6,14.3,73.1,-0.7191,0.8826,0.302,left-right
2024-06-04 18:58:26.481169,117624,11483,77.4,14.6,73.1,-0.6629,1.0701,0.2825,left-right
2024-06-04 18:58:26.491169,117624,11484,77.3,14.9,73.1,-0.6024,1.2454,0.2512,left-right
2024-06-04 18:58:26.501169,117624,11485,77.2,15.3,73.1,-0.556,1.3992,0.2136,left-right
2024-06-04 18:58:26.511169,117624,11486,77.1,15.6,73.1,-0.5242,1.5267,0.1731,left-right
2024-06-04 18:58:26.521169,117632,11487,77.0,16.0,73.1,-0.5008,1.6307,0.1326,left-right
2024-06-04 18:58:26.531169,117632,11488,76.9,16.3,73.1,-0.4866,1.7039,0.0969,left-right
2024-06-04 18:58:26.541169,117632,11489,76.9,16.7,73.1,-0.494,1.7493,0.0711,left-right
2024-06-04 18:58:26.551169,117632,11490,76.9,17.0,73.1,-0.5218,1.7718,0.0535,left-right
2024-06-04 18:58:26.561169,117632,11491,76.9,17.3,73.1,-0.5506,1.7698,0.0422,left-right
2024-06-04 18:58:26.571169,117632,11492,76.9,17.6,73.1,-0.5682,1.7562,0.0383,left-right
2024-06-04 18:58:26.581169,117640,11493,77.0,17.9,73.2,-0.5794,1.7195,0.0408,left-right
2024-06-04 18:58:26.591169,117744,11494,84.9,39.5,75.7,-0.597,1.6551,0.0447,left-right
2024-06-04 18:58:26.601169,117744,11495,85.0,39.6,75.8,-0.619,1.5418,0.0569,left-right
2024-06-04 18:58:26.611169,117752,11496,85.1,39.8,75.8,-0.6361,1.4139,0.0794,left-right
2024-06-04 18:58:26.621169,117752,11497,85.3,39.9,75.9,-0.6527,1.3157,0.1057,left-right
2024-06-04 18:58:26.631169,117752,11498,85.4,40.0,76.0,-0.6741,1.2303,0.1389,left-right
2024-06-04 18:58:26.641169,117752,11499,85.6,40.1,76.0,-0.6766,1.1614,0.176,left-right
2024-06-04 18:58:26.651169,117752,11500,85.7,40.1,76.1,-0.6512,1.1072,0.2097,left-right
2024-06-04 18:58:26.661169,117752,11501,85.9,40.2,76.1,-0.6131,1.0565,0.2439,left-right
2024-06-04 18:58:26.671169,117760,11502,86.0,40.3,76.1,-0.5867,0.9925,0.2839,left-right
2024-06-04 18:58:26.681169,117760,11503,86.2,40.4,76.1,-0.5809,0.9163,0.3294,left-right
2024-06-04 18:58:26.691169,117760,11504,86.3,40.4,76.1,-0.595,0.8216,0.3767,left-right
2024-06-04 18:58:26.701169,117760,11505,86.5,40.4,76.0,-0.637,0.7034,0.4216,left-right
2024-06-04 18:58:26.711169,117760,11506,86.6,40.3,76.0,-0.702,0.5726,0.4617,left-right
2024-06-04 18:58:26.721169,117872,11507,98.2,31.1,69.5,-0.7567,0.4412,0.4949,left-right
2024-06-04 18:58:26.731169,117872,11508,98.4,31.0,69.4,-0.7825,0.3343,0.5208,left-right
2024-06-04 18:58:26.741169,117872,11509,98.5,30.8,69.3,-0.7938,0.2547,0.5442,left-right
2024-06-04 18:58:26.751169,117872,11510,98.6,30.7,69.3,-0.8148,0.1863,0.5613,left-right
2024-06-04 18:58:26.761169,117880,11511,98.7,30.5,69.2,-0.849,0.1268,0.5755,left-right
2024-06-04 18:58:26.771169,117880,11512,98.9,30.2,69.1,-0.9046,0.0399,0.5881,left-right
2024-06-04 18:58:26.781169,117880,11513,99.0,30.0,69.1,-0.9783,-0.1192,0.5925,left-right
2024-06-04 18:58:26.791169,117880,11514,99.1,29.7,69.1,-1.0228,-0.2476,0.5852,left-right
2024-06-04 18:58:26.801169,117880,11515,99.3,29.4,69.1,-1.0614,-0.3448,0.5691,left-right
2024-06-04 18:58:26.811169,117880,11516,99.4,29.1,69.1,-1.1175,-0.5113,0.5505,left-right
2024-06-04 18:58:26.821169,117880,11517,99.5,28.8,69.1,-1.1615,-0.5977,0.5261,left-right
2024-06-04 18:58:26.831169,117888,11518,99.6,28.4,69.1,-1.1942,-0.6344,0.5022,left-right
2024-06-04 18:58:26.841169,117888,11519,99.7,28.1,69.1,-1.2064,-0.6973,0.489,left-right
2024-06-04 18:58:26.851169,118000,11520,108.2,3.0,70.5,-1.2318,-0.7393,0.4797,left-right
2024-06-04 18:58:26.861169,118000,11521,108.3,2.8,70.5,-1.262,-0.8136,0.4705,left-right
2024-06-04 18:58:26.871169,118000,11522,108.3,2.6,70.5,-1.2786,-0.8717,0.4602,left-right
2024-06-04 18:58:26.881169,118000,11523,108.4,2.3,70.5,-1.3084,-0.9034,0.45,left-right
2024-06-04 18:58:26.891169,118000,11524,108.4,2.1,70.5,-1.3392,-0.9425,0.4475,left-right
2024-06-04 18:58:26.901169,118000,11525,108.5,1.9,70.5,-1.3656,-0.9732,0.4539,left-right
2024-06-04 18:58:26.911169,118008,11526,108.5,1.7,70.5,-1.3734,-1.0015,0.4636,left-right
2024-06-04 18:58:26.921169,118008,11527,108.5,1.5,70.5,-1.3621,-1.026,0.4729,left-right
2024-06-04 18:58:26.931169,118008,11528,108.5,1.3,70.5,-1.3319,-1.0201,0.4841,left-right
2024-06-04 18:58:26.941169,118008,11529,108.4,1.0,70.6,-1.2869,-0.981,0.489,left-right
2024-06-04 18:58:26.951169,118008,11530,108.4,0.8,70.6,-1.2279,-0.9312,0.4861,left-right
2024-06-04 18:58:26.961169,118008,11531,108.3,0.6,70.6,-1.1624,-0.8829,0.4778,left-right
2024-06-04 18:58:26.971169,118008,11532,108.3,0.4,70.6,-1.1097,-0.8336,0.4651,left-right
2024-06-04 18:58:26.981169,118120,11533,101.8,-13.5,71.3,-1.0633,-0.7789,0.4524,left-right
2024-06-04 18:58:26.991169,118120,11534,101.7,-13.6,71.3,-1.0159,-0.7183,0.4397,left-right
2024-06-04 18:58:27.001169,118128,11535,101.7,-13.7,71.3,-0.9652,-0.651,0.4285,left-right
2024-06-04 18:58:27.011169,118128,11536,101.6,-13.8,71.4,-0.9202,-0.5787,0.4197,left-right
2024-06-04 18:58:27.021169,118128,11537,101.5,-13.9,71.4,-0.8846,-0.5035,0.4163,left-right
2024-06-04 18:58:27.031169,118128,11538,101.4,-13.9,71.4,-0.8548,-0.4312,0.4172,left-right
2024-06-04 18:58:27.041169,118128,11539,101.3,-13.9,71.4,-0.8348,-0.3668,0.4216,left-right
2024-06-04 18:58:27.051169,118128,11540,101.2,-13.9,71.4,-0.8148,-0.3101,0.429,left-right
2024-06-04 18:58:27.061169,118128,11541,101.0,-13.9,71.4,-0.7855,-0.253,0.4353,left-right
2024-06-04 18:58:27.071169,118136,11542,100.9,-13.9,71.4,-0.764,-0.1851,0.4378,left-right
2024-06-04 18:58:27.081169,118136,11543,100.8,-13.9,71.4,-0.7552,-0.1173,0.4348,left-right
2024-06-04 18:58:27.091169,118136,11544,100.7,-13.8,71.4,-0.7366,-0.0636,0.4255,left-right
2024-06-04 18:58:27.101169,118248,11545,90.8,-6.7,68.8,-0.7093,-0.0191,0.4089,left-right
2024-06-04 18:58:27.111169,118248,11546,90.7,-6.6,68.8,-0.6937,0.0286,0.385,left-right
2024-06-04 18:58:27.121169,118248,11547,90.5,-6.5,68.8,-0.6932,0.0799,0.3557,left-right
2024-06-04 18:58:27.131169,118248,11548,90.4,-6.3,68.8,-0.6971,0.1336,0.3328,left-right
2024-06-04 18:58:27.141169,118248,11549,90.3,-6.1,68.8,-0.7132,0.1898,0.322,left-right
2024-06-04 18:58:27.151169,118256,11550,90.1,-5.9,68.8,-0.7489,0.242,0.3196,left-right
2024-06-04 18:58:27.161169,118256,11551,90.0,-5.7,68.8,-0.7928,0.2859,0.3245,left-right
2024-06-04 18:58:27.171169,118256,11552,89.8,-5.4,68.9,-0.8348,0.3333,0.3308,left-right
2024-06-04 18:58:27.181169,118256,11553,89.7,-5.2,68.9,-0.8773,0.4066,0.3381,left-right
2024-06-04 18:58:27.191169,118256,11554,89.5,-4.9,68.9,-0.9051,0.5047,0.3464,left-right
2024-06-04 18:58:27.201169,118256,11555,89.4,-4.6,69.0,-0.8997,0.6263,0.3523,left-right
2024-06-04 18:58:27.211169,118256,11556,89.2,-4.3,69.0,-0.8724,0.7845,0.3518,left-right
2024-06-04 18:58:27.221169,118264,11557,89.1,-4.0,69.1,-0.8343,0.9515,0.346,left-right
2024-06-04 18:58:27.231169,118368,11558,76.1,22.4,71.4,-0.7938,1.1107,0.3323,left-right
2024-06-04 18:58:27.241169,118376,11559,76.0,22.6,71.4,-0.7567,1.2781,0.3108,left-right
2024-06-04 18:58:27.251169,118376,11560,75.8,22.9,71.4,-0.7288,1.43,0.2854,left-right
2024-06-04 18:58:27.261169,118376,11561,75.8,23.2,71.4,-0.7088,1.5501,0.2517,left-right
2024-06-04 18:58:27.271169,118376,11562,75.7,23.5,71.4,-0.6605,1.6409,0.2127,left-right
2024-06-04 18:58:27.281169,118376,11563,75.7,23.8,71.4,-0.6317,1.6805,0.178,left-right
2024-06-04 18:58:27.291169,118376,11564,75.6,24.0,71.4,-0.6566,1.68,0.1453,left-right
2024-06-04 18:58:27.301169,118376,11565,75.7,24.3,71.5,-0.6756,1.6331,0.1165,left-right
2024-06-04 18:58:27.311169,118384,11566,75.7,24.6,71.5,-0.6698,1.5604,0.0901,left-right
2024-06-04 18:58:27.321169,118384,11567,75.7,24.8,71.6,-0.6512,1.5179,0.0667,left-right
2024-06-04 18:58:27.331169,118384,11568,75.8,25.1,71.6,-0.6297,1.5027,0.0525,left-right
2024-06-04 18:58:27.341169,118384,11569,75.9,25.3,71.7,-0.6063,1.4871,0.0476,left-right
2024-06-04 18:58:27.351169,118384,11570,75.9,25.6,71.8,-0.5877,1.451,0.0476,left-right
2024-06-04 18:58:27.361169,118496,11571,84.4,42.6,76.9,-0.5653,1.4056,0.054,left-right
2024-06-04 18:58:27.371169,118496,11572,84.5,42.8,77.0,-0.5369,1.3558,0.0642,left-right
2024-06-04 18:58:27.381169,118496,11573,84.6,42.9,77.1,-0.5096,1.3016,0.0774,left-right
2024-06-04 18:58:27.391169,118504,11574,84.7,43.0,77.2,-0.4866,1.2523,0.0964,left-right
2024-06-04 18:58:27.401169,118504,11575,84.9,43.1,77.2,-0.4744,1.2044,0.1238,left-right
2024-06-04 18:58:27.411169,118504,11576,85.0,43.1,77.3,-0.4803,1.1448,0.158,left-right
2024-06-04 18:58:27.421169,118504,11577,85.1,43.2,77.3,-0.4906,1.076,0.1926,left-right
2024-06-04 18:58:27.431169,118504,11578,85.2,43.3,77.3,-0.4881,1.0135,0.2254,left-right
2024-06-04 18:58:27.441169,118504,11579,85.4,43.3,77.4,-0.471,0.9564,0.2586,left-right
2024-06-04 18:58:27.451169,118504,11580,85.5,43.3,77.3,-0.4466,0.9168,0.2971,left-right
2024-06-04 18:58:27.461169,118512,11581,85.6,43.4,77.3,-0.4349,0.9134,0.3381,left-right
2024-06-04 18:58:27.471169,118512,11582,85.7,43.4,77.3,-0.4657,0.8841,0.384,left-right
2024-06-04 18:58:27.481169,118512,11583,85.8,43.3,77.2,-0.5306,0.7508,0.4338,left-right
2024-06-04 18:58:27.491169,118624,11584,96.4,36.4,69.8,-0.6038,0.5526,0.4739,left-right
2024-06-04 18:58:27.501169,118624,11585,96.5,36.2,69.8,-0.681,0.3704,0.5032,left-right
2024-06-04 18:58:27.511169,118624,11586,96.7,36.0,69.7,-0.7606,0.2376,0.5266,left-right
2024-06-04 18:58:27.521169,118624,11587,96.8,35.8,69.7,-0.8265,0.0931,0.552,left-right
2024-06-04 18:58:27.531169,118624,11588,97.0,35.5,69.7,-0.931,-0.0636,0.5642,left-right
2024-06-04 18:58:27.541169,118624,11589,97.2,35.2,69.7,-1.0526,-0.1886,0.5535,left-right
2024-06-04 18:58:27.551169,118632,11590,97.4,34.8,69.7,-1.0872,-0.3394,0.5403,left-right
2024-06-04 18:58:27.561169,118632,11591,97.5,34.5,69.8,-1.099,-0.4444,0.5247,left-right
2024-06-04 18:58:27.571169,118632,11592,97.7,34.1,69.8,-1.1282,-0.4962,0.5027,left-right
2024-06-04 18:58:27.581169,118632,11593,97.8,33.7,69.9,-1.137,-0.5821,0.4817,left-right
2024-06-04 18:58:27.591169,118632,11594,98.0,33.4,69.9,-1.1522,-0.693,0.4617,left-right
2024-06-04 18:58:27.601169,118632,11595,98.1,33.0,70.0,-1.1888,-0.8092,0.4387,left-right
2024-06-04 18:58:27.611169,118640,11596,98.2,32.6,70.0,-1.2152,-0.9141,0.4172,left-right
2024-06-04 18:58:27.621169,118744,11597,106.5,3.6,72.6,-1.2249,-0.9698,0.3972,left-right
2024-06-04 18:58:27.631169,118744,11598,106.5,3.3,72.6,-1.2318,-0.9942,0.3801,left-right
2024-06-04 18:58:27.641169,118752,11599,106.6,3.1,72.6,-1.2371,-1.0318,0.3723,left-right
2024-06-04 18:58:27.651169,118752,11600,106.6,2.8,72.6,-1.2337,-1.0626,0.3699,left-right
2024-06-04 18:58:27.661169,118752,11601,106.7,2.6,72.6,-1.2283,-1.0748,0.3723,left-right
2024-06-04 18:58:27.671169,118752,11602,106.7,2.3,72.6,-1.2244,-1.0753,0.3777,left-right
2024-06-04 18:58:27.681169,118752,11603,106.7,2.1,72.6,-1.2215,-1.0802,0.3816,left-right
2024-06-04 18:58:27.691169,118752,11604,106.7,1.8,72.6,-1.2157,-1.0841,0.386,left-right
2024-06-04 18:58:27.701169,118760,11605,106.6,1.6,72.6,-1.2039,-1.0846,0.3904,left-right
2024-06-04 18:58:27.711169,118760,11606,106.6,1.3,72.6,-1.1854,-1.0733,0.3914,left-right
2024-06-04 18:58:27.721169,118760,11607,106.5,1.1,72.6,-1.1615,-1.044,0.3884,left-right
2024-06-04 18:58:27.731169,118760,11608,106.4,0.9,72.6,-1.137,-1.0035,0.3836,left-right
2024-06-04 18:58:27.741169,118760,11609,106.3,0.7,72.7,-1.1102,-0.9425,0.3816,left-right
2024-06-04 18:58:27.751169,118872,11610,96.6,-13.4,73.2,-1.0858,-0.858,0.385,left-right
2024-06-04 18:58:27.761169,118872,11611,96.4,-13.4,73.2,-1.0653,-0.7647,0.3919,left-right
2024-06-04 18:58:27.771169,118872,11612,96.3,-13.5,73.2,-1.0477,-0.6788,0.407,left-right
2024-06-04 18:58:27.781169,118872,11613,96.2,-13.5,73.3,-1.0374,-0.5929,0.4299,left-right
2024-06-04 18:58:27.791169,118880,11614,96.0,-13.6,73.3,-1.0286,-0.5006,0.4505,left-right
2024-06-04 18:58:27.801169,118880,11615,95.9,-13.5,73.3,-1.0174,-0.4015,0.4631,left-right
2024-06-04 18:58:27.811169,118880,11616,95.8,-13.5,73.4,-1.0023,-0.2945,0.4705,left-right
2024-06-04 18:58:27.821169,118880,11617,95.6,-13.4,73.4,-0.9832,-0.2027,0.4758,left-right
2024-06-04 18:58:27.831169,118880,11618,95.5,-13.4,73.4,-0.9613,-0.1251,0.4837,left-right
2024-06-04 18:58:27.841169,118880,11619,95.3,-13.2,73.4,-0.9368,-0.0421,0.489,left-right
2024-06-04 18:58:27.851169,118880,11620,95.2,-13.1,73.4,-0.9193,0.0384,0.4812,left-right
2024-06-04 18:58:27.861169,118888,11621,95.1,-12.9,73.4,-0.9066,0.0936,0.4631,left-right
2024-06-04 18:58:27.871169,118888,11622,95.0,-12.7,73.4,-0.8875,0.1341,0.4441,left-right
2024-06-04 18:58:27.881169,119000,11623,82.8,1.2,72.8,-0.8626,0.1795,0.426,left-right
2024-06-04 18:58:27.891169,119000,11624,82.7,1.4,72.8,-0.847,0.2337,0.4124,left-right
2024-06-04 18:58:27.901169,119000,11625,82.5,1.6,72.8,-0.847,0.2947,0.405,left-right
2024-06-04 18:58:27.911169,119000,11626,82.4,1.7,72.8,-0.845,0.3406,0.3992,left-right
2024-06-04 18:58:27.921169,119000,11627,82.2,1.9,72.8,-0.8275,0.3787,0.3875,left-right
2024-06-04 18:58:27.931169,119000,11628,82.1,2.1,72.8,-0.7894,0.4373,0.3709,left-right
2024-06-04 18:58:27.941169,119008,11629,81.9,2.4,72.8,-0.7381,0.5267,0.3518,left-right
2024-06-04 18:58:27.951169,119008,11630,81.8,2.6,72.8,-0.6751,0.6385,0.3338,left-right
2024-06-04 18:58:27.961169,119008,11631,81.6,2.9,72.8,-0.6121,0.7659,0.3167,left-right
2024-06-04 18:58:27.971169,119008,11632,81.5,3.2,72.8,-0.5545,0.9041,0.2942,left-right
2024-06-04 18:58:27.981169,119008,11633,81.3,3.6,72.8,-0.5062,1.0443,0.2708,left-right
2024-06-04 18:58:27.991169,119008,11634,81.2,3.9,72.8,-0.4574,1.1937,0.2434,left-right
2024-06-04 18:58:28.001169,119008,11635,81.1,4.3,72.8,-0.4027,1.3509,0.2068,left-right
2024-06-04 18:58:28.011169,119120,11636,71.3,35.4,72.5,-0.3729,1.4935,0.1677,left-right
2024-06-04 18:58:28.021169,119120,11637,71.2,35.7,72.4,-0.3558,1.6165,0.1336,left-right
2024-06-04 18:58:28.031169,119128,11638,71.1,36.0,72.4,-0.3455,1.7112,0.1052,left-right
2024-06-04 18:58:28.041169,119128,11639,71.1,36.3,72.3,-0.3568,1.764,0.0818,left-right
2024-06-04 18:58:28.051169,119128,11640,71.1,36.6,72.3,-0.3714,1.7811,0.0671,left-right
2024-06-04 18:58:28.061169,119128,11641,71.1,36.8,72.4,-0.3826,1.7806,0.0632,left-right
2024-06-04 18:58:28.071169,119128,11642,71.1,37.1,72.4,-0.4105,1.7684,0.0598,left-right
2024-06-04 18:58:28.081169,119128,11643,71.2,37.3,72.4,-0.4486,1.7654,0.0525,left-right
2024-06-04 18:58:28.091169,119128,11644,71.3,37.5,72.5,-0.4779,1.6985,0.0574,left-right
2024-06-04 18:58:28.101169,119136,11645,71.4,37.7,72.6,-0.4984,1.5892,0.0686,left-right
2024-06-04 18:58:28.111169,119136,11646,71.6,37.9,72.6,-0.5076,1.5184,0.0842,left-right
2024-06-04 18:58:28.121169,119136,11647,71.7,38.1,72.7,-0.5189,1.4612,0.1052,left-right
2024-06-04 18:58:28.131169,119248,11648,83.6,48.6,77.5,-0.5428,1.4276,0.1292,left-right
2024-06-04 18:58:28.141169,119248,11649,83.8,48.6,77.6,-0.5648,1.388,0.1648,left-right
2024-06-04 18:58:28.151169,119248,11650,84.0,48.7,77.7,-0.5765,1.3045,0.2175,left-right
2024-06-04 18:58:28.161169,119248,11651,84.2,48.7,77.8,-0.6097,1.1912,0.2683,left-right
2024-06-04 18:58:28.171169,119248,11652,84.3,48.6,77.9,-0.6678,1.0491,0.303,left-right
2024-06-04 18:58:28.181169,119256,11653,84.5,48.6,77.9,-0.7083,0.8773,0.3469,left-right
2024-06-04 18:58:28.191169,119256,11654,84.6,48.4,77.9,-0.7347,0.7191,0.3914,left-right
2024-06-04 18:58:28.201169,119256,11655,84.7,48.3,77.9,-0.7572,0.5716,0.407,left-right
2024-06-04 18:58:28.211169,119256,11656,84.8,48.1,77.9,-0.7567,0.4998,0.4187,left-right
2024-06-04 18:58:28.221169,119256,11657,84.9,47.9,77.9,-0.7674,0.4827,0.4353,left-right
2024-06-04 18:58:28.231169,119256,11658,85.0,47.7,77.9,-0.8153,0.4398,0.4417,left-right
2024-06-04 18:58:28.241169,119256,11659,85.2,47.4,77.9,-0.8831,0.3519,0.4402,left-right
2024-06-04 18:58:28.251169,119264,11660,85.3,47.1,77.9,-0.8792,0.2039,0.4407,left-right
2024-06-04 18:58:28.261169,119368,11661,98.1,22.6,75.6,-0.9261,0.0096,0.4343,left-right
2024-06-04 18:58:28.271169,119376,11662,98.3,22.3,75.6,-1.0448,-0.2032,0.4168,left-right
2024-06-04 18:58:28.281169,119376,11663,98.4,22.1,75.6,-1.0369,-0.3536,0.4002,left-right
2024-06-04 18:58:28.291169,119376,11664,98.5,21.8,75.6,-0.9754,-0.3946,0.3826,left-right
2024-06-04 18:58:28.301169,119376,11665,98.6,21.5,75.6,-0.9583,-0.4342,0.3665,left-right
2024-06-04 18:58:28.311169,119376,11666,98.7,21.2,75.5,-0.9671,-0.4205,0.345,left-right
2024-06-04 18:58:28.321169,119376,11667,98.8,20.9,75.5,-0.9647,-0.3805,0.3259,left-right
2024-06-04 18:58:28.331169,119376,11668,99.0,20.6,75.5,-0.9813,-0.4532,0.3128,left-right
2024-06-04 18:58:28.341169,119384,11669,99.1,20.4,75.5,-1.0369,-0.5587,0.2913,left-right
2024-06-04 18:58:28.351169,119384,11670,99.2,20.1,75.5,-1.0994,-0.6744,0.2698,left-right
2024-06-04 18:58:28.361169,119384,11671,99.2,19.8,75.5,-1.1097,-0.7501,0.2683,left-right
2024-06-04 18:58:28.371169,119384,11672,99.3,19.5,75.5,-1.117,-0.7681,0.2756,left-right
2024-06-04 18:58:28.381169,119384,11673,99.3,19.2,75.4,-1.1668,-0.7843,0.2717,left-right
2024-06-04 18:58:28.391169,119496,11674,103.6,-1.7,74.9,-1.2117,-0.7989,0.2683,left-right
2024-06-04 18:58:28.401169,119496,11675,103.6,-1.9,74.9,-1.2645,-0.8194,0.2713,left-right
2024-06-04 18:58:28.411169,119496,11676,103.6,-2.0,74.9,-1.3333,-0.857,0.2766,left-right
2024-06-04 18:58:28.421169,119504,11677,103.7,-2.2,74.9,-1.3851,-0.901,0.2849,left-right
2024-06-04 18:58:28.431169,119504,11678,103.7,-2.4,74.9,-1.4266,-0.9513,0.2908,left-right
2024-06-04 18:58:28.441169,119504,11679,103.7,-2.6,74.9,-1.4534,-1.0152,0.2976,left-right
2024-06-04 18:58:28.451169,119504,11680,103.6,-2.8,74.9,-1.4495,-1.0694,0.303,left-right
2024-06-04 18:58:28.461169,119504,11681,103.6,-3.0,74.9,-1.4466,-1.085,0.3069,left-right
2024-06-04 18:58:28.471169,119504,11682,103.5,-3.2,75.0,-1.4149,-1.0377,0.3181,left-right
2024-06-04 18:58:28.481169,119504,11683,103.5,-3.3,75.0,-1.3538,-0.9547,0.3225,left-right
2024-06-04 18:58:28.491169,119512,11684,103.4,-3.5,75.0,-1.3055,-0.8805,0.3196,left-right
2024-06-04 18:58:28.501169,119512,11685,103.3,-3.6,75.1,-1.2503,-0.7911,0.3259,left-right
2024-06-04 18:58:28.511169,119512,11686,103.1,-3.7,75.1,-1.1932,-0.7008,0.3367,left-right
2024-06-04 18:58:28.521169,119624,11687,91.8,-11.2,76.4,-1.1468,-0.6075,0.3489,left-right
2024-06-04 18:58:28.531169,119624,11688,91.6,-11.2,76.4,-1.1082,-0.5035,0.3626,left-right
2024-06-04 18:58:28.541169,119624,11689,91.5,-11.2,76.4,-1.075,-0.4083,0.3738,left-right
2024-06-04 18:58:28.551169,119624,11690,91.4,-11.2,76.5,-1.0379,-0.3258,0.384,left-right
2024-06-04 18:58:28.561169,119624,11691,91.3,-11.2,76.5,-0.9881,-0.2403,0.3889,left-right
2024-06-04 18:58:28.571169,119624,11692,91.1,-11.1,76.5,-0.9295,-0.1427,0.3889,left-right
2024-06-04 18:58:28.581169,119632,11693,91.0,-11.0,76.5,-0.8861,-0.0431,0.387,left-right
2024-06-04 18:58:28.591169,119632,11694,90.9,-10.9,76.5,-0.8411,0.0389,0.3821,left-right
2024-06-04 18:58:28.601169,119632,11695,90.8,-10.8,76.5,-0.7879,0.0984,0.3728,left-right
2024-06-04 18:58:28.611169,119632,11696,90.7,-10.6,76.5,-0.7537,0.1497,0.3601,left-right
2024-06-04 18:58:28.621169,119632,11697,90.6,-10.4,76.5,-0.7308,0.1956,0.3523,left-right
2024-06-04 18:58:28.631169,119632,11698,90.5,-10.2,76.5,-0.7113,0.2347,0.345,left-right
2024-06-04 18:58:28.641169,119640,11699,90.4,-10.0,76.4,-0.6917,0.2757,0.3318,left-right
2024-06-04 18:58:28.651169,119744,11700,80.1,6.6,74.2,-0.6639,0.3348,0.3171,left-right
2024-06-04 18:58:28.661169,119744,11701,79.9,6.8,74.2,-0.6307,0.4007,0.2976,left-right
2024-06-04 18:58:28.671169,119752,11702,79.8,7.0,74.1,-0.6029,0.4598,0.2752,left-right
2024-06-04 18:58:28.681169,119752,11703,79.7,7.2,74.1,-0.5843,0.511,0.2605,left-right
2024-06-04 18:58:28.691169,119752,11704,79.6,7.4,74.1,-0.5687,0.5721,0.2546,left-right
2024-06-04 18:58:28.701169,119752,11705,79.5,7.6,74.0,-0.5501,0.6453,0.2483,left-right
2024-06-04 18:58:28.711169,119752,11706,79.4,7.9,74.0,-0.5286,0.7181,0.2424,left-right
2024-06-04 18:58:28.721169,119752,11707,79.2,8.1,74.0,-0.5443,0.8084,0.2366,left-right
2024-06-04 18:58:28.731169,119760,11708,79.1,8.4,73.9,-0.5296,0.909,0.2468,left-right
2024-06-04 18:58:28.741169,119760,11709,79.0,8.8,73.9,-0.5277,1.0164,0.2571,left-right
2024-06-04 18:58:28.751169,119760,11710,78.9,9.1,73.8,-0.5941,1.1351,0.2488,left-right
2024-06-04 18:58:28.761169,119760,11711,78.8,9.4,73.8,-0.6302,1.2547,0.2449,left-right
2024-06-04 18:58:28.771169,119760,11712,78.8,9.7,73.7,-0.6527,1.3919,0.2454,left-right
