read_at,millis,count,Yaw(deg),Pitch(deg),Roll(deg),ax(mg),ay(mg),az(mg),target_name
2024-06-04 18:57:52.390354,84000,8019,74.4,0.5,91.0,-1.616,0.5359,0.2747,up-down
2024-06-04 18:57:52.400354,84000,8020,74.4,0.6,90.8,-1.845,0.5018,0.3098,up-down
2024-06-04 18:57:52.410354,84000,8021,74.4,0.7,90.6,-2.0628,0.4529,0.3469,up-down
2024-06-04 18:57:52.420354,84000,8022,74.4,0.8,90.5,-2.2606,0.4031,0.3816,up-down
2024-06-04 18:57:52.430354,84000,8023,74.4,0.9,90.3,-2.452,0.3499,0.4129,up-down
2024-06-04 18:57:52.440354,84008,8024,74.5,0.9,90.2,-2.6317,0.2659,0.4373,up-down
2024-06-04 18:57:52.450354,84008,8025,74.5,0.9,90.1,-2.7371,0.2244,0.4465,up-down
2024-06-04 18:57:52.460354,84008,8026,74.5,0.9,90.0,-2.7635,0.2103,0.4548,up-down
2024-06-04 18:57:52.470354,84008,8027,74.5,1.0,89.9,-2.8104,0.1795,0.4666,up-down
2024-06-04 18:57:52.480354,84008,8028,74.5,1.0,89.9,-2.8494,0.1702,0.4768,up-down
2024-06-04 18:57:52.490354,84008,8029,74.5,1.0,89.9,-2.8333,0.1868,0.4885,up-down
2024-06-04 18:57:52.500354,84120,8030,73.3,2.0,88.0,-2.7703,0.2264,0.4954,up-down
2024-06-04 18:57:52.510354,84120,8031,73.3,2.0,88.0,-2.6624,0.2601,0.4934,up-down
2024-06-04 18:57:52.520354,84120,8032,73.3,2.0,88.1,-2.5062,0.2943,0.4778,up-down
2024-06-04 18:57:52.530354,84128,8033,73.3,2.0,88.1,-2.3226,0.3416,0.4573,up-down
2024-06-04 18:57:52.540354,84128,8034,73.3,2.0,88.1,-2.1458,0.3782,0.4353,up-down
2024-06-04 18:57:52.550354,84128,8035,73.3,2.0,88.2,-1.9886,0.3919,0.407,up-down
2024-06-04 18:57:52.560354,84128,8036,73.3,2.0,88.2,-1.8602,0.386,0.3787,up-down
2024-06-04 18:57:52.570354,84128,8037,73.3,2.0,88.2,-1.7513,0.3597,0.3557,up-down
2024-06-04 18:57:52.580354,84128,8038,73.3,2.0,88.3,-1.6453,0.3148,0.3377,up-down
2024-06-04 18:57:52.590354,84136,8039,73.3,2.0,88.3,-1.5443,0.2674,0.3176,up-down
2024-06-04 18:57:52.600354,84136,8040,73.3,2.0,88.4,-1.4525,0.2195,0.2947,up-down
2024-06-04 18:57:52.610354,84136,8041,73.3,2.0,88.5,-1.3568,0.1805,0.2717,up-down
2024-06-04 18:57:52.620354,84136,8042,73.3,1.9,88.5,-1.2479,0.1409,0.2537,up-down
2024-06-04 18:57:52.630354,84248,8043,71.4,0.3,92.2,-1.1141,0.1077,0.2361,up-down
2024-06-04 18:57:52.640354,84248,8044,71.4,0.2,92.3,-0.9578,0.1033,0.2112,up-down
2024-06-04 18:57:52.650354,84248,8045,71.3,0.2,92.3,-0.8011,0.1258,0.1785,up-down
2024-06-04 18:57:52.660354,84248,8046,71.3,0.3,92.4,-0.6483,0.1585,0.1404,up-down
2024-06-04 18:57:52.670354,84248,8047,71.3,0.4,92.4,-0.5072,0.1697,0.1028,up-down
2024-06-04 18:57:52.680354,84256,8048,71.3,0.5,92.5,-0.3958,0.1902,0.0588,up-down
2024-06-04 18:57:52.690354,84256,8049,71.3,0.7,92.5,-0.3094,0.2186,0.0154,up-down
2024-06-04 18:57:52.700354,84256,8050,71.3,1.0,92.6,-0.2269,0.2308,-0.0138,up-down
2024-06-04 18:57:52.710354,84256,8051,71.3,1.3,92.8,-0.1414,0.2386,-0.0392,up-down
2024-06-04 18:57:52.720354,84256,8052,71.3,1.6,92.9,-0.0687,0.2308,-0.0695,up-down
2024-06-04 18:57:52.730354,84256,8053,71.3,1.9,93.2,-0.015,0.2029,-0.0983,up-down
2024-06-04 18:57:52.740354,84256,8054,71.3,2.2,93.4,0.0338,0.1507,-0.1178,up-down
2024-06-04 18:57:52.750354,84264,8055,71.3,2.4,93.8,0.0723,0.097,-0.1349,up-down
2024-06-04 18:57:52.760354,84368,8056,73.9,8.8,128.7,0.105,0.0501,-0.1505,up-down
2024-06-04 18:57:52.770354,84376,8057,73.9,8.8,129.1,0.1348,0.0052,-0.1593,up-down
2024-06-04 18:57:52.780354,84376,8058,74.0,8.7,129.5,0.1485,-0.0308,-0.1598,up-down
2024-06-04 18:57:52.790354,84376,8059,74.0,8.6,129.8,0.1509,-0.0509,-0.153,up-down
2024-06-04 18:57:52.800354,84376,8060,74.0,8.5,130.2,0.1441,-0.045,-0.1378,up-down
2024-06-04 18:57:52.810354,84376,8061,74.1,8.4,130.5,0.1246,-0.0206,-0.1149,up-down
2024-06-04 18:57:52.820354,84376,8062,74.1,8.4,130.9,0.1007,-0.0001,-0.089,up-down
2024-06-04 18:57:52.830354,84384,8063,74.2,8.4,131.2,0.0718,-0.0045,-0.068,up-down
2024-06-04 18:57:52.840354,84384,8064,74.2,8.2,131.5,0.0279,-0.0299,-0.0529,up-down
2024-06-04 18:57:52.850354,84384,8065,74.3,7.9,131.6,-0.0125,-0.0572,-0.0392,up-down
2024-06-04 18:57:52.860354,84384,8066,74.3,7.6,131.5,-0.0379,-0.0714,-0.0255,up-down
2024-06-04 18:57:52.870354,84384,8067,74.3,7.3,131.3,-0.0697,-0.0787,-0.0109,up-down
2024-06-04 18:57:52.880354,84384,8068,74.3,7.0,131.0,-0.1146,-0.0875,0.009,up-down
2024-06-04 18:57:52.890354,84496,8069,77.0,-8.5,107.3,-0.1629,-0.1016,0.0305,up-down
2024-06-04 18:57:52.900354,84496,8070,77.1,-8.6,107.1,-0.2088,-0.1168,0.0471,up-down
2024-06-04 18:57:52.910354,84496,8071,77.1,-8.7,106.8,-0.2464,-0.1207,0.0584,up-down
2024-06-04 18:57:52.920354,84504,8072,77.2,-8.7,106.6,-0.2801,-0.1051,0.0681,up-down
2024-06-04 18:57:52.930354,84504,8073,77.2,-8.7,106.3,-0.3157,-0.064,0.0808,up-down
2024-06-04 18:57:52.940354,84504,8074,77.2,-8.5,106.0,-0.3543,-0.0011,0.0969,up-down
2024-06-04 18:57:52.950354,84504,8075,77.3,-8.4,105.7,-0.3851,0.0794,0.1165,up-down
2024-06-04 18:57:52.960354,84504,8076,77.3,-8.1,105.4,-0.4227,0.158,0.1316,up-down
2024-06-04 18:57:52.970354,84504,8077,77.4,-7.9,105.1,-0.4949,0.2259,0.1423,up-down
2024-06-04 18:57:52.980354,84504,8078,77.4,-7.6,104.8,-0.6204,0.2879,0.158,up-down
2024-06-04 18:57:52.990354,84512,8079,77.4,-7.3,104.5,-0.6785,0.2884,0.1878,up-down
2024-06-04 18:57:53.000354,84512,8080,77.5,-7.1,104.1,-0.7933,0.3323,0.1956,up-down
2024-06-04 18:57:53.010354,84512,8081,77.5,-6.8,103.9,-0.9505,0.3943,0.1965,up-down
2024-06-04 18:57:53.020354,84624,8082,78.7,8.2,84.6,-1.0828,0.4046,0.2175,up-down
2024-06-04 18:57:53.030354,84624,8083,78.7,8.3,84.5,-1.2742,0.4202,0.2395,up-down
2024-06-04 18:57:53.040354,84624,8084,78.7,8.4,84.3,-1.4583,0.4056,0.2717,up-down
2024-06-04 18:57:53.050354,84624,8085,78.7,8.5,84.1,-1.6727,0.3714,0.3045,up-down
2024-06-04 18:57:53.060354,84624,8086,78.7,8.5,84.0,-1.8992,0.326,0.3391,up-down
2024-06-04 18:57:53.070354,84624,8087,78.8,8.5,83.8,-2.1361,0.2869,0.3713,up-down
2024-06-04 18:57:53.080354,84632,8088,78.8,8.5,83.7,-2.328,0.2366,0.4016,up-down
2024-06-04 18:57:53.090354,84632,8089,78.8,8.4,83.6,-2.4691,0.199,0.4299,up-down
2024-06-04 18:57:53.100354,84632,8090,78.8,8.4,83.6,-2.5833,0.1815,0.4475,up-down
2024-06-04 18:57:53.110354,84632,8091,78.8,8.3,83.5,-2.6634,0.1717,0.4622,up-down
2024-06-04 18:57:53.120354,84632,8092,78.8,8.3,83.5,-2.6937,0.1971,0.4744,up-down
2024-06-04 18:57:53.130354,84632,8093,78.9,8.3,83.4,-2.6854,0.1981,0.4876,up-down
2024-06-04 18:57:53.140354,84640,8094,78.9,8.2,83.4,-2.7088,0.1624,0.4993,up-down
2024-06-04 18:57:53.150354,84744,8095,79.1,4.6,83.0,-2.7049,0.1473,0.5042,up-down
2024-06-04 18:57:53.160354,84752,8096,79.1,4.6,83.0,-2.6463,0.1404,0.5061,up-down
2024-06-04 18:57:53.170354,84752,8097,79.1,4.6,83.1,-2.577,0.138,0.5051,up-down
2024-06-04 18:57:53.180354,84752,8098,79.1,4.5,83.1,-2.4676,0.1453,0.5037,up-down
2024-06-04 18:57:53.190354,84752,8099,79.1,4.5,83.2,-2.3309,0.1487,0.4983,up-down
2024-06-04 18:57:53.200354,84752,8100,79.1,4.4,83.2,-2.1951,0.1492,0.4861,up-down
2024-06-04 18:57:53.210354,84752,8101,79.1,4.4,83.3,-2.0633,0.1536,0.4675,up-down
2024-06-04 18:57:53.220354,84752,8102,79.1,4.3,83.4,-1.9281,0.1619,0.4461,up-down
2024-06-04 18:57:53.230354,84760,8103,79.1,4.3,83.5,-1.7923,0.178,0.4265,up-down
2024-06-04 18:57:53.240354,84760,8104,79.0,4.2,83.5,-1.659,0.1859,0.4046,up-down
2024-06-04 18:57:53.250354,84760,8105,79.0,4.2,83.6,-1.5247,0.1863,0.3787,up-down
2024-06-04 18:57:53.260354,84760,8106,79.0,4.1,83.7,-1.3909,0.1883,0.3499,up-down
2024-06-04 18:57:53.270354,84760,8107,79.0,4.1,83.8,-1.264,0.1829,0.3235,up-down
2024-06-04 18:57:53.280354,84872,8108,77.6,3.5,88.4,-1.1488,0.1815,0.2986,up-down
2024-06-04 18:57:53.290354,84872,8109,77.6,3.5,88.5,-1.0062,0.1556,0.2766,up-down
2024-06-04 18:57:53.300354,84872,8110,77.5,3.5,88.5,-0.849,0.119,0.2542,up-down
2024-06-04 18:57:53.310354,84872,8111,77.5,3.5,88.6,-0.7181,0.1077,0.2258,up-down
2024-06-04 18:57:53.320354,84880,8112,77.5,3.5,88.6,-0.6092,0.0916,0.1921,up-down
2024-06-04 18:57:53.330354,84880,8113,77.5,3.5,88.7,-0.5086,0.0545,0.1506,up-down
2024-06-04 18:57:53.340354,84880,8114,77.5,3.6,88.7,-0.3978,0.0452,0.1038,up-down
2024-06-04 18:57:53.350354,84880,8115,77.5,3.6,88.8,-0.2606,0.056,0.0579,up-down
2024-06-04 18:57:53.360354,84880,8116,77.5,3.7,88.9,-0.1243,0.0355,0.0095,up-down
2024-06-04 18:57:53.370354,84880,8117,77.6,3.8,89.3,-0.0257,0.0023,-0.0421,up-down
2024-06-04 18:57:53.380354,84888,8118,77.6,3.7,89.7,0.0518,-0.0304,-0.0875,up-down
2024-06-04 18:57:53.390354,84888,8119,77.6,3.6,90.0,0.129,-0.0465,-0.1256,up-down
2024-06-04 18:57:53.400354,85000,8120,81.7,3.2,122.8,0.2154,-0.047,-0.1588,up-down
2024-06-04 18:57:53.410354,85000,8121,81.8,3.2,123.2,0.3033,-0.0636,-0.1818,up-down
2024-06-04 18:57:53.420354,85000,8122,81.8,3.1,123.5,0.3731,-0.1021,-0.192,up-down
2024-06-04 18:57:53.430354,85000,8123,81.9,3.0,123.8,0.4151,-0.1544,-0.2008,up-down
2024-06-04 18:57:53.440354,85000,8124,81.9,2.8,124.1,0.4127,-0.2232,-0.2042,up-down
2024-06-04 18:57:53.450354,85000,8125,81.9,2.6,124.4,0.3585,-0.2818,-0.1954,up-down
2024-06-04 18:57:53.460354,85000,8126,81.9,2.4,124.6,0.2706,-0.3014,-0.1735,up-down
2024-06-04 18:57:53.470354,85008,8127,81.8,2.1,124.8,0.15,-0.2755,-0.1383,up-down
2024-06-04 18:57:53.480354,85008,8128,81.8,1.8,124.9,0.0333,-0.2169,-0.0949,up-down
2024-06-04 18:57:53.490354,85008,8129,81.8,1.5,124.9,-0.0467,-0.1344,-0.0524,up-down
2024-06-04 18:57:53.500354,85008,8130,81.8,1.4,124.7,-0.1092,-0.0367,-0.0158,up-down
2024-06-04 18:57:53.510354,85008,8131,81.8,1.6,124.4,-0.158,0.0482,0.0159,up-down
2024-06-04 18:57:53.520354,85008,8132,81.8,1.8,124.1,-0.1839,0.1019,0.0422,up-down
2024-06-04 18:57:53.530354,85120,8133,77.9,20.7,100.7,-0.1956,0.138,0.0598,up-down
2024-06-04 18:57:53.540354,85120,8134,77.8,20.9,100.5,-0.2083,0.1585,0.0671,up-down
2024-06-04 18:57:53.550354,85120,8135,77.7,21.1,100.2,-0.2259,0.1668,0.0676,up-down
2024-06-04 18:57:53.560354,85128,8136,77.6,21.2,100.0,-0.2493,0.181,0.0735,up-down
2024-06-04 18:57:53.570354,85128,8137,77.5,21.3,99.7,-0.307,0.2137,0.0925,up-down
2024-06-04 18:57:53.580354,85128,8138,77.5,21.4,99.5,-0.4105,0.2576,0.1155,up-down
2024-06-04 18:57:53.590354,85128,8139,77.4,21.5,99.2,-0.5135,0.2816,0.1321,up-down
2024-06-04 18:57:53.600354,85128,8140,77.3,21.6,98.9,-0.5887,0.2918,0.1365,up-down
2024-06-04 18:57:53.610354,85128,8141,77.3,21.6,98.7,-0.6263,0.2513,0.1511,up-down
2024-06-04 18:57:53.620354,85136,8142,77.2,21.7,98.4,-0.6971,0.2615,0.1487,up-down
2024-06-04 18:57:53.630354,85136,8143,77.2,21.7,98.2,-0.7625,0.261,0.1336,up-down
2024-06-04 18:57:53.640354,85136,8144,77.2,21.7,98.0,-0.8055,0.2108,0.1336,up-down
2024-06-04 18:57:53.650354,85136,8145,77.1,21.7,97.7,-0.8704,0.1863,0.1292,up-down
2024-06-04 18:57:53.660354,85248,8146,76.8,18.1,82.7,-0.8905,0.1229,0.1414,up-down
2024-06-04 18:57:53.670354,85248,8147,76.7,18.1,82.6,-0.95,0.0765,0.1755,up-down
2024-06-04 18:57:53.680354,85248,8148,76.7,18.0,82.4,-1.0931,0.0667,0.2234,up-down
2024-06-04 18:57:53.690354,85248,8149,76.7,17.9,82.2,-1.2445,0.1312,0.2151,up-down
2024-06-04 18:57:53.700354,85248,8150,76.7,17.9,82.1,-1.3866,0.241,0.0818,up-down
2024-06-04 18:57:53.710354,85256,8151,76.7,17.9,82.0,-1.6336,0.2381,-0.0236,up-down
2024-06-04 18:57:53.720354,85256,8152,76.7,17.9,81.8,-2.0526,0.1321,0.0711,up-down
2024-06-04 18:57:53.730354,85256,8153,76.7,17.8,81.7,-2.4998,0.0648,0.2976,up-down
2024-06-04 18:57:53.740354,85256,8154,76.6,17.7,81.6,-2.8743,0.077,0.5574,up-down
2024-06-04 18:57:53.750354,85256,8155,76.5,17.5,81.4,-3.0,0.2215,0.801,up-down
2024-06-04 18:57:53.760354,85256,8156,76.4,17.4,81.3,-3.0,0.4744,0.97,up-down
2024-06-04 18:57:53.770354,85256,8157,76.3,17.3,81.3,-3.0,0.7606,1.0335,up-down
2024-06-04 18:57:53.780354,85264,8158,76.2,17.3,81.2,-3.0,0.9998,1.0252,up-down
2024-06-04 18:57:53.790354,85368,8159,71.8,19.2,81.7,-3.0,1.1746,0.9578,up-down
2024-06-04 18:57:53.800354,85376,8160,71.8,19.2,81.7,-2.9578,1.2943,0.8338,up-down
2024-06-04 18:57:53.810354,85376,8161,71.8,19.3,81.8,-2.4993,1.2811,0.6873,up-down
2024-06-04 18:57:53.820354,85376,8162,71.8,19.4,81.9,-2.0262,1.1404,0.552,up-down
2024-06-04 18:57:53.830354,85376,8163,71.9,19.5,82.0,-1.639,0.9285,0.4412,up-down
2024-06-04 18:57:53.840354,85376,8164,72.0,19.5,82.2,-1.3929,0.6917,0.3342,up-down
2024-06-04 18:57:53.850354,85376,8165,72.1,19.4,82.3,-1.2742,0.471,0.2493,up-down
2024-06-04 18:57:53.860354,85384,8166,72.1,19.2,82.4,-1.22,0.2928,0.2102,up-down
2024-06-04 18:57:53.870354,85384,8167,72.2,19.0,82.5,-1.1898,0.1487,0.1926,up-down
2024-06-04 18:57:53.880354,85384,8168,72.2,18.8,82.6,-1.1634,0.0457,0.1799,up-down
2024-06-04 18:57:53.890354,85384,8169,72.3,18.6,82.7,-1.1199,-0.0015,0.1692,up-down
2024-06-04 18:57:53.900354,85384,8170,72.3,18.3,82.8,-1.0638,-0.0299,0.1531,up-down
2024-06-04 18:57:53.910354,85384,8171,72.3,18.1,83.0,-0.9671,-0.0597,0.135,up-down
2024-06-04 18:57:53.920354,85496,8172,72.3,2.9,89.2,-0.8255,-0.0797,0.1155,up-down
2024-06-04 18:57:53.930354,85496,8173,72.3,2.8,89.3,-0.7069,-0.1021,0.0838,up-down
2024-06-04 18:57:53.940354,85496,8174,72.3,2.6,89.4,-0.6243,-0.1231,0.0466,up-down
2024-06-04 18:57:53.950354,85504,8175,72.3,2.4,89.4,-0.5623,-0.1368,0.0178,up-down
2024-06-04 18:57:53.960354,85504,8176,72.3,2.2,89.5,-0.5267,-0.1519,-0.0094,up-down
2024-06-04 18:57:53.970354,85504,8177,72.3,2.0,89.6,-0.5169,-0.1671,-0.0338,up-down
2024-06-04 18:57:53.980354,85504,8178,72.3,1.9,89.7,-0.4906,-0.1529,-0.0421,up-down
2024-06-04 18:57:53.990354,85504,8179,72.3,1.7,89.8,-0.4383,-0.1139,-0.0416,up-down
2024-06-04 18:57:54.000354,85504,8180,72.2,1.6,89.9,-0.3949,-0.0728,-0.0426,up-down
2024-06-04 18:57:54.010354,85504,8181,72.2,1.5,90.0,-0.3548,-0.0304,-0.0421,up-down
2024-06-04 18:57:54.020354,85512,8182,72.2,1.5,90.1,-0.3114,-0.0035,-0.0411,up-down
2024-06-04 18:57:54.030354,85512,8183,72.2,1.4,90.2,-0.2674,0.0023,-0.0416,up-down
2024-06-04 18:57:54.040354,85512,8184,72.2,1.4,90.3,-0.224,-0.0006,-0.0397,up-down
2024-06-04 18:57:54.050354,85624,8185,70.7,-0.1,96.6,-0.1976,0.0003,-0.0387,up-down
2024-06-04 18:57:54.060354,85624,8186,70.7,-0.1,96.7,-0.1898,0.013,-0.0358,up-down
2024-06-04 18:57:54.070354,85624,8187,70.7,0.0,96.7,-0.1785,0.0257,-0.027,up-down
2024-06-04 18:57:54.080354,85624,8188,70.7,0.0,96.7,-0.1649,0.0237,-0.0202,up-down
2024-06-04 18:57:54.090354,85624,8189,70.7,0.0,96.7,-0.1492,0.0272,-0.0197,up-down
2024-06-04 18:57:54.100354,85624,8190,70.7,0.2,96.7,-0.1156,0.0491,-0.0206,up-down
2024-06-04 18:57:54.110354,85632,8191,70.7,0.5,96.8,-0.075,0.0814,-0.027,up-down
2024-06-04 18:57:54.120354,85632,8192,70.7,0.8,96.9,-0.0379,0.117,-0.0431,up-down
2024-06-04 18:57:54.130354,85632,8193,70.7,1.2,97.0,0.001,0.1331,-0.0582,up-down
2024-06-04 18:57:54.140354,85632,8194,70.8,1.6,97.2,0.0284,0.1282,-0.0714,up-down
2024-06-04 18:57:54.150354,85632,8195,70.8,1.9,97.4,0.046,0.1175,-0.0846,up-down
2024-06-04 18:57:54.160354,85632,8196,70.8,2.2,97.6,0.0552,0.1009,-0.0958,up-down
2024-06-04 18:57:54.170354,85640,8197,70.9,2.4,97.8,0.0469,0.0814,-0.1076,up-down
2024-06-04 18:57:54.180354,85744,8198,80.0,19.7,121.7,0.0196,0.0609,-0.1134,up-down
2024-06-04 18:57:54.190354,85752,8199,80.1,19.7,121.9,-0.0199,0.0364,-0.1051,up-down
2024-06-04 18:57:54.200354,85752,8200,80.2,19.7,121.9,-0.0697,0.0169,-0.0773,up-down
2024-06-04 18:57:54.210354,85752,8201,80.2,19.5,121.7,-0.1331,0.0027,-0.0416,up-down
2024-06-04 18:57:54.220354,85752,8202,80.2,19.4,121.4,-0.2113,-0.0059,-0.0099,up-down
2024-06-04 18:57:54.230354,85752,8203,80.2,19.4,121.0,-0.2894,-0.0059,0.0242,up-down
2024-06-04 18:57:54.240354,85752,8204,80.1,19.3,120.6,-0.3328,-0.0123,0.0671,up-down
2024-06-04 18:57:54.250354,85752,8205,80.1,19.2,120.2,-0.4036,-0.0235,0.1253,up-down
2024-06-04 18:57:54.260354,85760,8206,80.0,19.1,119.8,-0.6053,-0.0128,0.177,up-down
2024-06-04 18:57:54.270354,85760,8207,80.0,19.1,119.3,-0.805,0.0316,0.2239,up-down
2024-06-04 18:57:54.280354,85760,8208,79.9,19.1,118.9,-0.9608,0.0775,0.2844,up-down
2024-06-04 18:57:54.290354,85760,8209,79.8,19.1,118.5,-1.1605,0.096,0.3596,up-down
2024-06-04 18:57:54.300354,85760,8210,79.8,19.0,118.0,-1.4012,0.1116,0.4475,up-down
2024-06-04 18:57:54.310354,85872,8211,76.1,14.3,89.9,-1.6639,0.1507,0.5178,up-down
2024-06-04 18:57:54.320354,85872,8212,76.1,14.3,89.7,-1.8778,0.2225,0.4915,up-down
2024-06-04 18:57:54.330354,85872,8213,76.1,14.3,89.5,-2.0477,0.2415,0.3601,up-down
2024-06-04 18:57:54.340354,85872,8214,76.1,14.3,89.3,-2.2659,0.1673,0.2918,up-down
2024-06-04 18:57:54.350354,85880,8215,76.1,14.2,89.2,-2.5638,0.0696,0.3816,up-down
2024-06-04 18:57:54.360354,85880,8216,76.1,14.1,89.0,-2.8797,-0.0201,0.5618,up-down
2024-06-04 18:57:54.370354,85880,8217,76.1,13.9,88.9,-3.0,-0.0933,0.761,up-down
2024-06-04 18:57:54.380354,85880,8218,76.0,13.7,88.8,-3.0,-0.023,0.9109,up-down
2024-06-04 18:57:54.390354,85880,8219,76.0,13.5,88.7,-3.0,0.0584,0.9885,up-down
2024-06-04 18:57:54.400354,85880,8220,75.9,13.4,88.6,-3.0,0.075,0.9871,up-down
2024-06-04 18:57:54.410354,85888,8221,75.9,13.4,88.6,-3.0,0.2064,0.9251,up-down
2024-06-04 18:57:54.420354,85888,8222,75.9,13.4,88.6,-2.7279,0.3611,0.8225,up-down
2024-06-04 18:57:54.430354,86000,8223,75.0,15.4,87.9,-2.2816,0.4134,0.6609,up-down
2024-06-04 18:57:54.440354,86000,8224,75.0,15.4,88.0,-1.8363,0.3592,0.4841,up-down
2024-06-04 18:57:54.450354,86000,8225,75.0,15.4,88.0,-1.474,0.2962,0.3499,up-down
2024-06-04 18:57:54.460354,86000,8226,75.0,15.4,88.1,-1.2679,0.2508,0.2664,up-down
2024-06-04 18:57:54.470354,86000,8227,75.0,15.2,88.1,-1.1903,0.1805,0.2175,up-down
2024-06-04 18:57:54.480354,86000,8228,75.0,15.1,88.1,-1.1829,0.0965,0.2029,up-down
2024-06-04 18:57:54.490354,86000,8229,75.0,14.9,88.2,-1.2157,0.0325,0.2161,up-down
2024-06-04 18:57:54.500354,86008,8230,75.0,14.7,88.2,-1.2445,-0.002,0.2371,up-down
2024-06-04 18:57:54.510354,86008,8231,74.9,14.6,88.3,-1.223,-0.0152,0.2507,up-down
2024-06-04 18:57:54.520354,86008,8232,74.9,14.4,88.3,-1.1497,-0.0201,0.2507,up-down
2024-06-04 18:57:54.530354,86008,8233,74.9,14.3,88.4,-1.0574,-0.0138,0.2478,up-down
2024-06-04 18:57:54.540354,86008,8234,74.8,14.1,88.4,-0.952,-0.0177,0.2424,up-down
2024-06-04 18:57:54.550354,86008,8235,74.8,14.0,88.4,-0.8387,-0.0372,0.2219,up-down
2024-06-04 18:57:54.560354,86120,8236,71.8,4.1,88.2,-0.7376,-0.0494,0.1858,up-down
2024-06-04 18:57:54.570354,86120,8237,71.7,4.0,88.2,-0.6458,-0.0601,0.1477,up-down
2024-06-04 18:57:54.580354,86120,8238,71.7,3.9,88.2,-0.5701,-0.0582,0.1111,up-down
2024-06-04 18:57:54.590354,86128,8239,71.7,3.8,88.3,-0.5159,-0.0494,0.0764,up-down
2024-06-04 18:57:54.600354,86128,8240,71.7,3.7,88.3,-0.4774,-0.0572,0.0462,up-down
2024-06-04 18:57:54.610354,86128,8241,71.7,3.6,88.4,-0.4368,-0.0631,0.0178,up-down
2024-06-04 18:57:54.620354,86128,8242,71.6,3.5,88.5,-0.3729,-0.0557,-0.0031,up-down
2024-06-04 18:57:54.630354,86128,8243,71.6,3.4,88.6,-0.2952,-0.044,-0.0167,up-down
2024-06-04 18:57:54.640354,86128,8244,71.6,3.3,88.7,-0.2318,-0.0367,-0.0372,up-down
2024-06-04 18:57:54.650354,86136,8245,71.6,3.2,88.8,-0.1824,-0.0562,-0.0617,up-down
2024-06-04 18:57:54.660354,86136,8246,71.6,3.0,89.0,-0.1395,-0.0841,-0.0783,up-down
2024-06-04 18:57:54.670354,86136,8247,71.6,2.7,89.3,-0.097,-0.0982,-0.087,up-down
2024-06-04 18:57:54.680354,86136,8248,71.5,2.4,89.5,-0.0687,-0.1099,-0.0919,up-down
2024-06-04 18:57:54.690354,86248,8249,65.9,-19.1,108.9,-0.0628,-0.1085,-0.0963,up-down
2024-06-04 18:57:54.700354,86248,8250,65.8,-19.3,109.2,-0.0609,-0.0821,-0.0988,up-down
2024-06-04 18:57:54.710354,86248,8251,65.7,-19.3,109.4,-0.0477,-0.0416,-0.0997,up-down
2024-06-04 18:57:54.720354,86248,8252,65.6,-19.2,109.8,-0.0228,0.0023,-0.1032,up-down
2024-06-04 18:57:54.730354,86248,8253,65.5,-19.0,110.1,0.0128,0.0467,-0.1022,up-down
2024-06-04 18:57:54.740354,86256,8254,65.3,-18.7,110.4,0.0469,0.0931,-0.0983,up-down
2024-06-04 18:57:54.750354,86256,8255,65.3,-18.4,110.6,0.0479,0.1292,-0.0978,up-down
2024-06-04 18:57:54.760354,86256,8256,65.2,-18.1,110.7,0.0181,0.1453,-0.0895,up-down
2024-06-04 18:57:54.770354,86256,8257,65.2,-17.7,110.8,-0.0203,0.139,-0.0729,up-down
2024-06-04 18:57:54.780354,86256,8258,65.2,-17.3,110.8,-0.0692,0.1141,-0.0573,up-down
2024-06-04 18:57:54.790354,86256,8259,65.2,-17.0,110.7,-0.1185,0.0809,-0.0436,up-down
2024-06-04 18:57:54.800354,86256,8260,65.2,-16.8,110.6,-0.1551,0.0447,-0.0289,up-down
2024-06-04 18:57:54.810354,86264,8261,65.3,-16.6,110.3,-0.1932,0.0198,-0.0099,up-down
2024-06-04 18:57:54.820354,86368,8262,67.9,-5.9,93.6,-0.244,0.0106,0.0164,up-down
2024-06-04 18:57:54.830354,86376,8263,68.0,-5.8,93.4,-0.3021,0.0184,0.0466,up-down
2024-06-04 18:57:54.840354,86376,8264,68.0,-5.7,93.2,-0.3626,0.0369,0.0794,up-down
2024-06-04 18:57:54.850354,86376,8265,68.0,-5.6,93.0,-0.4461,0.0316,0.1209,up-down
2024-06-04 18:57:54.860354,86376,8266,68.0,-5.5,92.7,-0.5042,0.0535,0.1443,up-down
2024-06-04 18:57:54.870354,86376,8267,68.0,-5.4,92.5,-0.5609,0.0789,0.1643,up-down
2024-06-04 18:57:54.880354,86376,8268,68.0,-5.2,92.2,-0.6429,0.0975,0.2005,up-down
2024-06-04 18:57:54.890354,86384,8269,68.0,-5.1,91.9,-0.7396,0.159,0.2278,up-down
2024-06-04 18:57:54.900354,86384,8270,68.0,-4.9,91.7,-0.869,0.2025,0.2566,up-down
2024-06-04 18:57:54.910354,86384,8271,68.1,-4.7,91.4,-0.9969,0.2249,0.2996,up-down
2024-06-04 18:57:54.920354,86384,8272,68.1,-4.6,91.1,-1.1351,0.2435,0.3504,up-down
2024-06-04 18:57:54.930354,86384,8273,68.1,-4.5,90.9,-1.2889,0.243,0.4031,up-down
2024-06-04 18:57:54.940354,86384,8274,68.1,-4.4,90.6,-1.471,0.2078,0.4583,up-down
2024-06-04 18:57:54.950354,86496,8275,69.4,0.5,75.6,-1.6917,0.1429,0.5178,up-down
2024-06-04 18:57:54.960354,86496,8276,69.5,0.5,75.5,-1.9217,0.0784,0.5759,up-down
2024-06-04 18:57:54.970354,86496,8277,69.5,0.5,75.4,-2.1175,0.0296,0.6106,up-down
2024-06-04 18:57:54.980354,86504,8278,69.5,0.6,75.3,-2.244,0.0076,0.5989,up-down
2024-06-04 18:57:54.990354,86504,8279,69.5,0.6,75.3,-2.3084,0.0574,0.5642,up-down
2024-06-04 18:57:55.000354,86504,8280,69.5,0.7,75.2,-2.3875,0.0418,0.5725,up-down
2024-06-04 18:57:55.010354,86504,8281,69.5,0.7,75.2,-2.5491,-0.0313,0.6336,up-down
2024-06-04 18:57:55.020354,86504,8282,69.5,0.7,75.1,-2.7557,-0.0406,0.718,up-down
2024-06-04 18:57:55.030354,86504,8283,69.5,0.7,75.1,-2.9422,-0.0479,0.804,up-down
2024-06-04 18:57:55.040354,86504,8284,69.4,0.7,75.2,-3.0,-0.0162,0.8513,up-down
2024-06-04 18:57:55.050354,86512,8285,69.4,0.7,75.2,-2.9549,0.077,0.8416,up-down
2024-06-04 18:57:55.060354,86512,8286,69.4,0.7,75.3,-2.7723,0.2093,0.8001,up-down
2024-06-04 18:57:55.070354,86512,8287,69.4,0.8,75.4,-2.4774,0.3699,0.74,up-down
2024-06-04 18:57:55.080354,86624,8288,69.1,8.0,79.7,-2.1356,0.4788,0.6497,up-down
2024-06-04 18:57:55.090354,86624,8289,69.1,8.0,79.8,-1.8377,0.5037,0.5471,up-down
2024-06-04 18:57:55.100354,86624,8290,69.1,8.1,79.8,-1.6312,0.5081,0.4602,up-down
2024-06-04 18:57:55.110354,86624,8291,69.1,8.1,79.9,-1.4984,0.4974,0.4041,up-down
2024-06-04 18:57:55.120354,86624,8292,69.1,8.1,80.0,-1.4241,0.4368,0.3748,up-down
2024-06-04 18:57:55.130354,86624,8293,69.1,8.1,80.0,-1.3924,0.3509,0.3601,up-down
2024-06-04 18:57:55.140354,86632,8294,69.1,8.0,80.1,-1.3587,0.2908,0.3577,up-down
2024-06-04 18:57:55.150354,86632,8295,69.2,8.0,80.2,-1.3011,0.2601,0.3577,up-down
2024-06-04 18:57:55.160354,86632,8296,69.2,8.0,80.3,-1.2205,0.2357,0.3504,up-down
2024-06-04 18:57:55.170354,86632,8297,69.2,7.9,80.3,-1.1287,0.2039,0.3333,up-down
2024-06-04 18:57:55.180354,86632,8298,69.2,7.9,80.4,-1.0301,0.1697,0.3069,up-down
2024-06-04 18:57:55.190354,86632,8299,69.2,7.8,80.5,-0.9163,0.1409,0.2756,up-down
2024-06-04 18:57:55.200354,86640,8300,69.2,7.8,80.6,-0.8084,0.1004,0.2424,up-down
2024-06-04 18:57:55.210354,86744,8301,68.8,3.7,83.7,-0.7078,0.0731,0.2107,up-down
2024-06-04 18:57:55.220354,86752,8302,68.8,3.6,83.8,-0.6048,0.074,0.1785,up-down
2024-06-04 18:57:55.230354,86752,8303,68.8,3.6,83.8,-0.5189,0.0804,0.1448,up-down
2024-06-04 18:57:55.240354,86752,8304,68.8,3.6,83.9,-0.4476,0.0838,0.1135,up-down
2024-06-04 18:57:55.250354,86752,8305,68.8,3.6,83.9,-0.3778,0.0784,0.0847,up-down
2024-06-04 18:57:55.260354,86752,8306,68.8,3.6,83.9,-0.3182,0.0569,0.0593,up-down
2024-06-04 18:57:55.270354,86752,8307,68.8,3.6,84.0,-0.2606,0.0374,0.0388,up-down
2024-06-04 18:57:55.280354,86752,8308,68.8,3.6,84.1,-0.2122,0.0223,0.0183,up-down
2024-06-04 18:57:55.290354,86760,8309,68.8,3.5,84.1,-0.1839,-0.0103,-0.0016,up-down
2024-06-04 18:57:55.300354,86760,8310,68.8,3.3,84.3,-0.161,-0.0557,-0.0187,up-down
2024-06-04 18:57:55.310354,86760,8311,68.8,3.0,84.4,-0.1322,-0.1036,-0.0314,up-down
2024-06-04 18:57:55.320354,86760,8312,68.8,2.7,84.5,-0.1019,-0.1422,-0.0392,up-down
2024-06-04 18:57:55.330354,86760,8313,68.8,2.3,84.7,-0.0775,-0.1558,-0.047,up-down
2024-06-04 18:57:55.340354,86872,8314,64.3,-27.5,97.5,-0.0535,-0.1534,-0.0578,up-down
2024-06-04 18:57:55.350354,86872,8315,64.2,-27.8,97.6,-0.0277,-0.1309,-0.0641,up-down
2024-06-04 18:57:55.360354,86872,8316,64.1,-28.1,97.9,-0.0057,-0.088,-0.0641,up-down
2024-06-04 18:57:55.370354,86872,8317,63.9,-28.2,98.3,0.0137,-0.0377,-0.0641,up-down
2024-06-04 18:57:55.380354,86880,8318,63.7,-28.2,98.7,0.0259,0.0135,-0.067,up-down
2024-06-04 18:57:55.390354,86880,8319,63.5,-28.1,99.0,0.0284,0.0384,-0.068,up-down
2024-06-04 18:57:55.400354,86880,8320,63.3,-27.9,99.3,0.0216,0.0359,-0.0651,up-down
2024-06-04 18:57:55.410354,86880,8321,63.1,-27.8,99.7,0.0074,0.0169,-0.0607,up-down
2024-06-04 18:57:55.420354,86880,8322,63.0,-27.7,100.0,-0.0199,-0.0074,-0.0504,up-down
2024-06-04 18:57:55.430354,86880,8323,62.9,-27.7,100.1,-0.0623,-0.0333,-0.0358,up-down
2024-06-04 18:57:55.440354,86888,8324,62.9,-27.7,100.0,-0.1102,-0.0582,-0.0167,up-down
2024-06-04 18:57:55.450354,86888,8325,62.9,-27.6,99.8,-0.1571,-0.0704,0.0081,up-down
2024-06-04 18:57:55.460354,87000,8326,64.7,-22.3,86.6,-0.203,-0.0738,0.0349,up-down
2024-06-04 18:57:55.470354,87000,8327,64.7,-22.2,86.5,-0.2479,-0.0723,0.0637,up-down
2024-06-04 18:57:55.480354,87000,8328,64.8,-22.1,86.3,-0.3045,-0.0592,0.096,up-down
2024-06-04 18:57:55.490354,87000,8329,64.8,-22.0,86.1,-0.3753,-0.0299,0.1331,up-down
2024-06-04 18:57:55.500354,87000,8330,64.8,-21.8,85.9,-0.5101,0.0086,0.1594,up-down
2024-06-04 18:57:55.510354,87000,8331,64.8,-21.5,85.7,-0.557,0.0613,0.1848,up-down
2024-06-04 18:57:55.520354,87000,8332,64.8,-21.3,85.5,-0.5833,0.1214,0.219,up-down
2024-06-04 18:57:55.530354,87008,8333,64.8,-21.0,85.3,-0.7113,0.1663,0.2483,up-down
2024-06-04 18:57:55.540354,87008,8334,64.9,-20.7,85.1,-0.8016,0.2049,0.2791,up-down
2024-06-04 18:57:55.550354,87008,8335,64.9,-20.4,84.9,-0.9339,0.2484,0.3108,up-down
2024-06-04 18:57:55.560354,87008,8336,64.9,-20.1,84.7,-1.0994,0.2816,0.3435,up-down
2024-06-04 18:57:55.570354,87008,8337,64.9,-19.8,84.5,-1.2699,0.3035,0.3811,up-down
2024-06-04 18:57:55.580354,87008,8338,65.0,-19.5,84.4,-1.4691,0.3255,0.4192,up-down
2024-06-04 18:57:55.590354,87120,8339,64.5,-0.3,75.2,-1.6624,0.3397,0.45,up-down
2024-06-04 18:57:55.600354,87120,8340,64.5,-0.2,75.2,-1.8358,0.348,0.4607,up-down
2024-06-04 18:57:55.610354,87120,8341,64.5,0.0,75.1,-1.9588,0.3338,0.4094,up-down
2024-06-04 18:57:55.620354,87128,8342,64.5,0.0,75.1,-2.0189,0.2884,0.3093,up-down
2024-06-04 18:57:55.630354,87128,8343,64.5,0.1,75.0,-2.1351,0.2552,0.2546,up-down
2024-06-04 18:57:55.640354,87128,8344,64.5,0.1,75.0,-2.4491,0.1854,0.3084,up-down
2024-06-04 18:57:55.650354,87128,8345,64.6,0.0,74.9,-2.9178,0.0599,0.4714,up-down
2024-06-04 18:57:55.660354,87128,8346,64.6,0.0,74.9,-3.0,-0.0811,0.6643,up-down
2024-06-04 18:57:55.670354,87128,8347,64.6,-0.1,75.0,-3.0,-0.1803,0.802,up-down
2024-06-04 18:57:55.680354,87136,8348,64.5,-0.1,75.1,-3.0,-0.1768,0.8474,up-down
2024-06-04 18:57:55.690354,87136,8349,64.5,0.0,75.2,-3.0,-0.065,0.8128,up-down
2024-06-04 18:57:55.700354,87136,8350,64.5,0.0,75.3,-2.8245,0.1468,0.7293,up-down
2024-06-04 18:57:55.710354,87136,8351,64.5,0.1,75.4,-2.2996,0.3387,0.5984,up-down
2024-06-04 18:57:55.720354,87248,8352,64.0,8.4,81.0,-1.8553,0.4485,0.4509,up-down
2024-06-04 18:57:55.730354,87248,8353,64.0,8.4,81.1,-1.576,0.5296,0.3342,up-down
2024-06-04 18:57:55.740354,87248,8354,64.0,8.5,81.2,-1.3988,0.595,0.2688,up-down
2024-06-04 18:57:55.750354,87248,8355,64.0,8.5,81.3,-1.306,0.5779,0.242,up-down
2024-06-04 18:57:55.760354,87248,8356,64.0,8.5,81.4,-1.3157,0.4861,0.2346,up-down
2024-06-04 18:57:55.770354,87256,8357,64.0,8.5,81.5,-1.3304,0.3919,0.2444,up-down
2024-06-04 18:57:55.780354,87256,8358,64.1,8.5,81.6,-1.2948,0.3079,0.261,up-down
2024-06-04 18:57:55.790354,87256,8359,64.1,8.5,81.7,-1.2391,0.2381,0.2669,up-down
2024-06-04 18:57:55.800354,87256,8360,64.1,8.5,81.8,-1.1624,0.1751,0.261,up-down
2024-06-04 18:57:55.810354,87256,8361,64.1,8.4,81.9,-1.0667,0.1219,0.2483,up-down
2024-06-04 18:57:55.820354,87256,8362,64.1,8.3,81.9,-0.9793,0.096,0.2337,up-down
2024-06-04 18:57:55.830354,87256,8363,64.1,8.3,82.0,-0.8826,0.1024,0.2185,up-down
2024-06-04 18:57:55.840354,87264,8364,64.1,8.2,82.1,-0.7684,0.1326,0.1985,up-down
2024-06-04 18:57:55.850354,87368,8365,62.8,9.2,85.3,-0.6473,0.179,0.1726,up-down
2024-06-04 18:57:55.860354,87376,8366,62.8,9.2,85.3,-0.5399,0.2259,0.1389,up-down
2024-06-04 18:57:55.870354,87376,8367,62.8,9.3,85.4,-0.4534,0.2596,0.1023,up-down
2024-06-04 18:57:55.880354,87376,8368,62.8,9.5,85.4,-0.3675,0.2713,0.0711,up-down
2024-06-04 18:57:55.890354,87376,8369,62.8,9.7,85.5,-0.2874,0.2557,0.0452,up-down
2024-06-04 18:57:55.900354,87376,8370,62.8,9.9,85.6,-0.2244,0.2186,0.0203,up-down
2024-06-04 18:57:55.910354,87376,8371,62.9,10.1,85.7,-0.1688,0.1609,-0.0021,up-down
2024-06-04 18:57:55.920354,87384,8372,62.9,10.2,85.8,-0.1224,0.1063,-0.0216,up-down
2024-06-04 18:57:55.930354,87384,8373,62.9,10.4,86.0,-0.0867,0.0618,-0.0358,up-down
2024-06-04 18:57:55.940354,87384,8374,63.0,10.3,86.3,-0.055,0.0101,-0.0455,up-down
2024-06-04 18:57:55.950354,87384,8375,63.1,10.1,86.6,-0.0267,-0.0406,-0.0519,up-down
2024-06-04 18:57:55.960354,87384,8376,63.1,9.7,86.9,-0.0023,-0.0777,-0.0578,up-down
2024-06-04 18:57:55.970354,87384,8377,63.2,9.4,87.1,0.0196,-0.0909,-0.0656,up-down
2024-06-04 18:57:55.980354,87496,8378,61.1,-18.1,108.9,0.0377,-0.0841,-0.07,up-down
2024-06-04 18:57:55.990354,87496,8379,61.0,-18.4,109.2,0.0484,-0.0655,-0.069,up-down
2024-06-04 18:57:56.000354,87496,8380,60.9,-18.6,109.5,0.0528,-0.0504,-0.0636,up-down
2024-06-04 18:57:56.010354,87504,8381,60.8,-18.9,109.8,0.0548,-0.0509,-0.0548,up-down
2024-06-04 18:57:56.020354,87504,8382,60.7,-19.1,110.0,0.0484,-0.0557,-0.0426,up-down
2024-06-04 18:57:56.030354,87504,8383,60.7,-19.5,110.1,0.0274,-0.0782,-0.0285,up-down
2024-06-04 18:57:56.040354,87504,8384,60.6,-19.8,110.1,0.0006,-0.1119,-0.0148,up-down
2024-06-04 18:57:56.050354,87504,8385,60.7,-20.1,110.1,-0.0282,-0.1427,-0.0031,up-down
2024-06-04 18:57:56.060354,87504,8386,60.7,-20.4,109.9,-0.0531,-0.1695,0.0076,up-down
2024-06-04 18:57:56.070354,87504,8387,60.7,-20.7,109.8,-0.0741,-0.17,0.0198,up-down
2024-06-04 18:57:56.080354,87512,8388,60.8,-20.8,109.5,-0.0936,-0.1388,0.0383,up-down
2024-06-04 18:57:56.090354,87512,8389,60.9,-20.9,109.2,-0.1239,-0.0968,0.0618,up-down
2024-06-04 18:57:56.100354,87512,8390,61.0,-20.9,108.8,-0.1707,-0.064,0.0852,up-down
2024-06-04 18:57:56.110354,87624,8391,65.1,-14.0,83.6,-0.2362,-0.0484,0.1091,up-down
2024-06-04 18:57:56.120354,87624,8392,65.1,-13.9,83.3,-0.3128,-0.0474,0.1316,up-down
2024-06-04 18:57:56.130354,87624,8393,65.1,-13.7,83.1,-0.4193,-0.0474,0.1516,up-down
2024-06-04 18:57:56.140354,87624,8394,65.1,-13.6,83.0,-0.491,-0.0245,0.1746,up-down
2024-06-04 18:57:56.150354,87624,8395,65.0,-13.4,82.8,-0.5657,0.0379,0.2044,up-down
2024-06-04 18:57:56.160354,87624,8396,65.0,-13.2,82.6,-0.7044,0.0936,0.2322,up-down
2024-06-04 18:57:56.170354,87632,8397,65.0,-13.0,82.4,-0.8436,0.1517,0.2586,up-down
2024-06-04 18:57:56.180354,87632,8398,65.0,-12.7,82.2,-1.0111,0.2415,0.2922,up-down
2024-06-04 18:57:56.190354,87632,8399,64.9,-12.5,82.0,-1.2205,0.3509,0.3323,up-down
2024-06-04 18:57:56.200354,87632,8400,64.9,-12.2,81.8,-1.4901,0.4778,0.3743,up-down
2024-06-04 18:57:56.210354,87632,8401,64.9,-11.9,81.7,-1.8021,0.5897,0.4124,up-down
2024-06-04 18:57:56.220354,87632,8402,64.9,-11.6,81.6,-2.1165,0.6634,0.4358,up-down
2024-06-04 18:57:56.230354,87640,8403,65.0,-11.3,81.5,-2.3919,0.6805,0.4241,up-down
2024-06-04 18:57:56.240354,87744,8404,67.2,8.3,77.9,-2.5672,0.6277,0.3504,up-down
2024-06-04 18:57:56.250354,87752,8405,67.2,8.4,77.9,-2.6951,0.5447,0.2742,up-down
2024-06-04 18:57:56.260354,87752,8406,67.3,8.5,77.9,-2.9193,0.4647,0.2864,up-down
2024-06-04 18:57:56.270354,87752,8407,67.3,8.6,77.9,-3.0,0.3875,0.3899,up-down
2024-06-04 18:57:56.280354,87752,8408,67.3,8.6,77.9,-3.0,0.3494,0.5349,up-down
2024-06-04 18:57:56.290354,87752,8409,67.3,8.5,78.0,-3.0,0.4056,0.6492,up-down
2024-06-04 18:57:56.300354,87752,8410,67.2,8.5,78.1,-3.0,0.5452,0.6985,up-down
2024-06-04 18:57:56.310354,87752,8411,67.2,8.5,78.2,-3.0,0.7283,0.6799,up-down
2024-06-04 18:57:56.320354,87760,8412,67.2,8.6,78.3,-2.7196,0.888,0.5911,up-down
2024-06-04 18:57:56.330354,87760,8413,67.2,8.7,78.5,-2.2323,0.929,0.4607,up-down
2024-06-04 18:57:56.340354,87760,8414,67.3,8.8,78.6,-1.8441,0.9095,0.3396,up-down
2024-06-04 18:57:56.350354,87760,8415,67.3,8.8,78.8,-1.5701,0.8724,0.2556,up-down
2024-06-04 18:57:56.360354,87760,8416,67.3,8.9,78.9,-1.3963,0.7889,0.2044,up-down
2024-06-04 18:57:56.370354,87872,8417,70.7,12.7,87.2,-1.2738,0.6526,0.1795,up-down
2024-06-04 18:57:56.380354,87872,8418,70.7,12.7,87.3,-1.1917,0.5311,0.1702,up-down
2024-06-04 18:57:56.390354,87872,8419,70.8,12.7,87.4,-1.1483,0.451,0.1687,up-down
2024-06-04 18:57:56.400354,87872,8420,70.8,12.6,87.5,-1.0809,0.3714,0.1697,up-down
2024-06-04 18:57:56.410354,87880,8421,70.8,12.5,87.5,-0.9813,0.2664,0.1663,up-down
2024-06-04 18:57:56.420354,87880,8422,70.8,12.5,87.6,-0.8763,0.1849,0.1555,up-down
2024-06-04 18:57:56.430354,87880,8423,70.8,12.4,87.7,-0.7528,0.1619,0.1375,up-down
2024-06-04 18:57:56.440354,87880,8424,70.8,12.3,87.8,-0.6341,0.1585,0.1174,up-down
2024-06-04 18:57:56.450354,87880,8425,70.8,12.2,87.8,-0.5418,0.178,0.096,up-down
2024-06-04 18:57:56.460354,87880,8426,70.8,12.2,87.9,-0.4564,0.2015,0.0769,up-down
2024-06-04 18:57:56.470354,87888,8427,70.8,12.3,88.0,-0.3866,0.2156,0.0598,up-down
2024-06-04 18:57:56.480354,87888,8428,70.8,12.3,88.1,-0.3309,0.2015,0.0398,up-down
2024-06-04 18:57:56.490354,88000,8429,70.0,18.8,93.0,-0.2659,0.1776,0.0198,up-down
2024-06-04 18:57:56.500354,88000,8430,70.0,18.9,93.0,-0.1795,0.1697,0.0061,up-down
2024-06-04 18:57:56.510354,88000,8431,70.0,19.0,93.1,-0.1014,0.1439,-0.0079,up-down
2024-06-04 18:57:56.520354,88000,8432,70.0,19.2,93.3,-0.054,0.0799,-0.0211,up-down
2024-06-04 18:57:56.530354,88000,8433,70.1,19.2,93.6,-0.0321,0.0179,-0.0314,up-down
2024-06-04 18:57:56.540354,88000,8434,70.3,19.0,94.0,-0.013,-0.0098,-0.0392,up-down
2024-06-04 18:57:56.550354,88000,8435,70.4,18.8,94.3,0.0167,-0.024,-0.046,up-down
2024-06-04 18:57:56.560354,88008,8436,70.5,18.6,94.6,0.0508,-0.0533,-0.0558,up-down
2024-06-04 18:57:56.570354,88008,8437,70.5,18.4,94.8,0.0675,-0.0787,-0.0612,up-down
2024-06-04 18:57:56.580354,88008,8438,70.6,18.2,95.0,0.064,-0.0914,-0.0607,up-down
2024-06-04 18:57:56.590354,88008,8439,70.7,17.9,95.2,0.0557,-0.1002,-0.0558,up-down
2024-06-04 18:57:56.600354,88008,8440,70.7,17.6,95.3,0.0567,-0.1007,-0.0446,up-down
2024-06-04 18:57:56.610354,88008,8441,70.8,17.3,95.4,0.0626,-0.1036,-0.0304,up-down
2024-06-04 18:57:56.620354,88120,8442,71.8,-14.5,96.1,0.0513,-0.1139,-0.0162,up-down
2024-06-04 18:57:56.630354,88120,8443,71.8,-14.9,96.1,0.0284,-0.1319,-0.0031,up-down
2024-06-04 18:57:56.640354,88120,8444,71.8,-15.2,96.0,0.0108,-0.1549,0.0061,up-down
2024-06-04 18:57:56.650354,88128,8445,71.8,-15.6,95.9,-0.0057,-0.17,0.011,up-down
2024-06-04 18:57:56.660354,88128,8446,71.8,-15.9,95.8,-0.0286,-0.1783,0.0149,up-down
2024-06-04 18:57:56.670354,88128,8447,71.8,-16.2,95.6,-0.0521,-0.1803,0.0208,up-down
2024-06-04 18:57:56.680354,88128,8448,71.8,-16.5,95.5,-0.0755,-0.1724,0.0335,up-down
2024-06-04 18:57:56.690354,88128,8449,71.9,-16.7,95.3,-0.1087,-0.1588,0.0515,up-down
2024-06-04 18:57:56.700354,88128,8450,71.9,-16.8,95.0,-0.1561,-0.1431,0.0759,up-down
2024-06-04 18:57:56.710354,88136,8451,72.0,-16.9,94.7,-0.2113,-0.129,0.1072,up-down
2024-06-04 18:57:56.720354,88136,8452,72.0,-16.9,94.4,-0.2757,-0.1192,0.1414,up-down
2024-06-04 18:57:56.730354,88136,8453,72.0,-16.8,94.1,-0.3421,-0.0987,0.1712,up-down
2024-06-04 18:57:56.740354,88136,8454,72.1,-16.7,93.8,-0.3958,-0.0582,0.1921,up-down
2024-06-04 18:57:56.750354,88248,8455,70.6,-5.6,74.9,-0.4578,0.0135,0.2048,up-down
2024-06-04 18:57:56.760354,88248,8456,70.6,-5.4,74.8,-0.5535,0.0784,0.2317,up-down
2024-06-04 18:57:56.770354,88248,8457,70.6,-5.3,74.6,-0.6497,0.0931,0.2722,up-down
2024-06-04 18:57:56.780354,88248,8458,70.5,-5.1,74.4,-0.7537,0.1107,0.2937,up-down
2024-06-04 18:57:56.790354,88248,8459,70.5,-5.0,74.3,-0.9007,0.1668,0.2986,up-down
2024-06-04 18:57:56.800354,88256,8460,70.4,-4.8,74.1,-1.0438,0.2444,0.2962,up-down
2024-06-04 18:57:56.810354,88256,8461,70.4,-4.5,74.0,-1.1663,0.3455,0.2918,up-down
2024-06-04 18:57:56.820354,88256,8462,70.3,-4.3,73.9,-1.2987,0.4529,0.2952,up-down
2024-06-04 18:57:56.830354,88256,8463,70.3,-4.1,73.8,-1.4642,0.5399,0.3093,up-down
2024-06-04 18:57:56.840354,88256,8464,70.3,-3.9,73.7,-1.6829,0.5609,0.3284,up-down
2024-06-04 18:57:56.850354,88256,8465,70.3,-3.8,73.6,-1.9486,0.5291,0.3606,up-down
2024-06-04 18:57:56.860354,88256,8466,70.3,-3.6,73.5,-2.2313,0.4783,0.406,up-down
2024-06-04 18:57:56.870354,88264,8467,70.4,-3.5,73.5,-2.4886,0.3919,0.4426,up-down
2024-06-04 18:57:56.880354,88368,8468,71.5,1.4,74.0,-2.7015,0.2576,0.4573,up-down
2024-06-04 18:57:56.890354,88376,8469,71.5,1.4,74.0,-2.7425,0.2425,0.4529,up-down
2024-06-04 18:57:56.900354,88376,8470,71.6,1.5,74.0,-2.8016,0.2298,0.4402,up-down
2024-06-04 18:57:56.910354,88376,8471,71.6,1.5,74.0,-2.9388,0.1317,0.4402,up-down
2024-06-04 18:57:56.920354,88376,8472,71.5,1.5,74.1,-2.9945,0.1483,0.447,up-down
2024-06-04 18:57:56.930354,88376,8473,71.5,1.5,74.2,-2.9803,0.2391,0.4509,up-down
2024-06-04 18:57:56.940354,88376,8474,71.5,1.6,74.3,-2.8538,0.3665,0.4573,up-down
2024-06-04 18:57:56.950354,88384,8475,71.5,1.6,74.4,-2.701,0.4847,0.4534,up-down
2024-06-04 18:57:56.960354,88384,8476,71.5,1.7,74.5,-2.512,0.5716,0.4363,up-down
2024-06-04 18:57:56.970354,88384,8477,71.5,1.8,74.6,-2.2733,0.617,0.4075,up-down
2024-06-04 18:57:56.980354,88384,8478,71.5,1.8,74.8,-2.078,0.5999,0.3699,up-down
2024-06-04 18:57:56.990354,88384,8479,71.6,1.9,74.9,-1.9373,0.5687,0.3381,up-down
2024-06-04 18:57:57.000354,88384,8480,71.6,1.9,75.0,-1.8167,0.5267,0.3191,up-down
2024-06-04 18:57:57.010354,88496,8481,74.4,4.7,82.6,-1.7293,0.4539,0.3084,up-down
2024-06-04 18:57:57.020354,88496,8482,74.4,4.7,82.7,-1.6444,0.3817,0.302,up-down
2024-06-04 18:57:57.030354,88496,8483,74.5,4.7,82.8,-1.5526,0.3304,0.3005,up-down
2024-06-04 18:57:57.040354,88504,8484,74.5,4.6,82.9,-1.4661,0.2967,0.2986,up-down
2024-06-04 18:57:57.050354,88504,8485,74.5,4.6,82.9,-1.3714,0.2679,0.2918,up-down
2024-06-04 18:57:57.060354,88504,8486,74.5,4.6,83.0,-1.2576,0.2498,0.2835,up-down
2024-06-04 18:57:57.070354,88504,8487,74.5,4.6,83.1,-1.1527,0.2313,0.2761,up-down
2024-06-04 18:57:57.080354,88504,8488,74.5,4.5,83.2,-1.0335,0.2093,0.2673,up-down
2024-06-04 18:57:57.090354,88504,8489,74.5,4.5,83.3,-0.8743,0.2025,0.2517,up-down
2024-06-04 18:57:57.100354,88504,8490,74.5,4.6,83.4,-0.7215,0.2098,0.2263,up-down
2024-06-04 18:57:57.110354,88512,8491,74.5,4.6,83.5,-0.6029,0.2137,0.1956,up-down
2024-06-04 18:57:57.120354,88512,8492,74.6,4.7,83.5,-0.5032,0.2054,0.1687,up-down
2024-06-04 18:57:57.130354,88512,8493,74.6,4.8,83.6,-0.4027,0.1776,0.1433,up-down
2024-06-04 18:57:57.140354,88624,8494,74.9,12.2,83.4,-0.3099,0.1507,0.1121,up-down
2024-06-04 18:57:57.150354,88624,8495,74.9,12.3,83.4,-0.2205,0.1253,0.0794,up-down
2024-06-04 18:57:57.160354,88624,8496,74.9,12.4,83.4,-0.1395,0.0833,0.0457,up-down
2024-06-04 18:57:57.170354,88624,8497,74.9,12.4,83.5,-0.0819,0.035,0.01,up-down
2024-06-04 18:57:57.180354,88624,8498,75.0,12.2,83.8,-0.0321,-0.0128,-0.0226,up-down
2024-06-04 18:57:57.190354,88624,8499,75.0,11.9,84.1,0.0191,-0.0597,-0.048,up-down
2024-06-04 18:57:57.200354,88632,8500,75.1,11.6,84.3,0.0479,-0.1041,-0.0631,up-down
2024-06-04 18:57:57.210354,88632,8501,75.1,11.3,84.5,0.0655,-0.1309,-0.07,up-down
2024-06-04 18:57:57.220354,88632,8502,75.2,11.0,84.6,0.087,-0.1524,-0.0719,up-down
2024-06-04 18:57:57.230354,88632,8503,75.2,10.7,84.7,0.1075,-0.171,-0.0719,up-down
2024-06-04 18:57:57.240354,88632,8504,75.2,10.4,84.8,0.1353,-0.1793,-0.0714,up-down
2024-06-04 18:57:57.250354,88632,8505,75.2,10.2,84.9,0.1617,-0.1812,-0.07,up-down
2024-06-04 18:57:57.260354,88640,8506,75.2,10.0,84.9,0.1876,-0.1593,-0.067,up-down
2024-06-04 18:57:57.270354,88744,8507,75.1,-8.5,87.8,0.2017,-0.1314,-0.0626,up-down
2024-06-04 18:57:57.280354,88752,8508,75.1,-8.7,87.8,0.2027,-0.1265,-0.0534,up-down
2024-06-04 18:57:57.290354,88752,8509,75.1,-9.0,87.8,0.192,-0.1353,-0.0411,up-down
2024-06-04 18:57:57.300354,88752,8510,75.1,-9.3,87.8,0.1646,-0.1485,-0.0275,up-down
2024-06-04 18:57:57.310354,88752,8511,75.0,-9.6,87.8,0.1378,-0.1558,-0.0128,up-down
2024-06-04 18:57:57.320354,88752,8512,75.0,-9.9,87.7,0.1114,-0.1534,0.0051,up-down
2024-06-04 18:57:57.330354,88752,8513,75.0,-10.2,87.5,0.0821,-0.1451,0.0256,up-down
2024-06-04 18:57:57.340354,88752,8514,75.1,-10.6,87.3,0.0518,-0.1373,0.0471,up-down
2024-06-04 18:57:57.350354,88760,8515,75.1,-10.9,87.0,0.0167,-0.1275,0.072,up-down
2024-06-04 18:57:57.360354,88760,8516,75.1,-11.1,86.6,-0.034,-0.108,0.1013,up-down
2024-06-04 18:57:57.370354,88760,8517,75.2,-11.1,86.3,-0.1092,-0.0865,0.1345,up-down
2024-06-04 18:57:57.380354,88760,8518,75.2,-11.1,85.9,-0.2025,-0.0811,0.1751,up-down
2024-06-04 18:57:57.390354,88760,8519,75.2,-11.1,85.6,-0.3011,-0.0782,0.219,up-down
2024-06-04 18:57:57.400354,88872,8520,73.5,-6.0,66.1,-0.3968,-0.0597,0.2576,up-down
2024-06-04 18:57:57.410354,88872,8521,73.4,-5.9,65.9,-0.4783,-0.0211,0.2971,up-down
2024-06-04 18:57:57.420354,88872,8522,73.4,-5.8,65.8,-0.6087,0.0467,0.3372,up-down
2024-06-04 18:57:57.430354,88872,8523,73.3,-5.6,65.6,-0.7215,0.1624,0.3836,up-down
2024-06-04 18:57:57.440354,88880,8524,73.3,-5.4,65.5,-0.8426,0.2776,0.4163,up-down
2024-06-04 18:57:57.450354,88880,8525,73.2,-5.1,65.3,-0.9935,0.3611,0.4285,up-down
2024-06-04 18:57:57.460354,88880,8526,73.1,-4.9,65.2,-1.1424,0.4236,0.4412,up-down
2024-06-04 18:57:57.470354,88880,8527,73.1,-4.6,65.2,-1.3221,0.4632,0.4402,up-down
2024-06-04 18:57:57.480354,88880,8528,73.0,-4.4,65.1,-1.5013,0.4861,0.4221,up-down
2024-06-04 18:57:57.490354,88880,8529,72.9,-4.1,65.1,-1.6864,0.4959,0.3923,up-down
2024-06-04 18:57:57.500354,88888,8530,72.9,-3.9,65.1,-1.8651,0.5037,0.3645,up-down
2024-06-04 18:57:57.510354,88888,8531,72.8,-3.7,65.1,-2.0457,0.5145,0.3474,up-down
2024-06-04 18:57:57.520354,89000,8532,70.1,7.9,68.4,-2.2171,0.5228,0.3352,up-down
2024-06-04 18:57:57.530354,89000,8533,70.1,8.0,68.4,-2.3397,0.5145,0.2922,up-down
2024-06-04 18:57:57.540354,89000,8534,70.0,8.0,68.4,-2.3685,0.5228,0.2254,up-down
2024-06-04 18:57:57.550354,89000,8535,70.1,8.1,68.4,-2.4705,0.5008,0.2185,up-down
2024-06-04 18:57:57.560354,89000,8536,70.1,8.0,68.5,-2.7899,0.4437,0.3113,up-down
2024-06-04 18:57:57.570354,89000,8537,70.1,7.9,68.5,-3.0,0.4046,0.4724,up-down
2024-06-04 18:57:57.580354,89000,8538,70.1,7.9,68.6,-3.0,0.3655,0.6336,up-down
2024-06-04 18:57:57.590354,89008,8539,70.2,7.8,68.8,-3.0,0.3104,0.7219,up-down
2024-06-04 18:57:57.600354,89008,8540,70.1,7.8,68.9,-3.0,0.2928,0.7141,up-down
2024-06-04 18:57:57.610354,89008,8541,70.1,7.8,69.1,-2.9349,0.3777,0.6526,up-down
2024-06-04 18:57:57.620354,89008,8542,70.1,7.9,69.2,-2.4495,0.5218,0.5496,up-down
2024-06-04 18:57:57.630354,89008,8543,70.1,7.9,69.4,-2.0267,0.6497,0.429,up-down
2024-06-04 18:57:57.640354,89008,8544,70.1,8.0,69.6,-1.7318,0.7415,0.3352,up-down
2024-06-04 18:57:57.650354,89120,8545,73.1,13.4,79.8,-1.5565,0.7869,0.2781,up-down
2024-06-04 18:57:57.660354,89120,8546,73.2,13.4,79.9,-1.4715,0.7527,0.2571,up-down
2024-06-04 18:57:57.670354,89120,8547,73.2,13.4,80.1,-1.4486,0.658,0.2551,up-down
2024-06-04 18:57:57.680354,89128,8548,73.3,13.4,80.2,-1.4515,0.5609,0.2703,up-down
2024-06-04 18:57:57.690354,89128,8549,73.3,13.3,80.3,-1.4295,0.4774,0.2922,up-down
2024-06-04 18:57:57.700354,89128,8550,73.4,13.3,80.4,-1.3651,0.4046,0.3069,up-down
2024-06-04 18:57:57.710354,89128,8551,73.4,13.3,80.5,-1.2762,0.3524,0.3088,up-down
2024-06-04 18:57:57.720354,89128,8552,73.4,13.2,80.6,-1.1898,0.3104,0.302,up-down
2024-06-04 18:57:57.730354,89128,8553,73.5,13.1,80.7,-1.0921,0.265,0.2883,up-down
2024-06-04 18:57:57.740354,89136,8554,73.5,13.0,80.8,-0.9613,0.2298,0.2678,up-down
2024-06-04 18:57:57.750354,89136,8555,73.5,13.0,80.9,-0.8265,0.2132,0.2395,up-down
2024-06-04 18:57:57.760354,89136,8556,73.5,12.9,81.0,-0.6995,0.2034,0.2073,up-down
2024-06-04 18:57:57.770354,89136,8557,73.5,12.9,81.1,-0.5794,0.1893,0.1775,up-down
2024-06-04 18:57:57.780354,89248,8558,73.7,14.1,84.0,-0.4764,0.1834,0.1448,up-down
2024-06-04 18:57:57.790354,89248,8559,73.7,14.1,84.1,-0.3856,0.1766,0.1126,up-down
2024-06-04 18:57:57.800354,89248,8560,73.7,14.2,84.1,-0.285,0.1502,0.0842,up-down
2024-06-04 18:57:57.810354,89248,8561,73.7,14.3,84.1,-0.1868,0.1194,0.0525,up-down
2024-06-04 18:57:57.820354,89248,8562,73.7,14.4,84.2,-0.1024,0.0853,0.0183,up-down
2024-06-04 18:57:57.830354,89256,8563,73.8,14.6,84.4,-0.0321,0.0413,-0.0167,up-down
2024-06-04 18:57:57.840354,89256,8564,73.9,14.6,84.8,0.0245,-0.0059,-0.0485,up-down
2024-06-04 18:57:57.850354,89256,8565,74.0,14.5,85.1,0.0728,-0.0572,-0.0724,up-down
2024-06-04 18:57:57.860354,89256,8566,74.1,14.3,85.3,0.1099,-0.1065,-0.0895,up-down
2024-06-04 18:57:57.870354,89256,8567,74.1,14.1,85.5,0.1441,-0.1534,-0.0983,up-down
2024-06-04 18:57:57.880354,89256,8568,74.2,13.9,85.6,0.1876,-0.1895,-0.1017,up-down
2024-06-04 18:57:57.890354,89256,8569,74.2,13.7,85.7,0.2354,-0.2061,-0.1041,up-down
2024-06-04 18:57:57.900354,89264,8570,74.2,13.5,85.8,0.2759,-0.2105,-0.1046,up-down
2024-06-04 18:57:57.910354,89368,8571,74.9,-4.3,89.4,0.2984,-0.2052,-0.0983,up-down
2024-06-04 18:57:57.920354,89376,8572,74.8,-4.5,89.5,0.296,-0.189,-0.0851,up-down
2024-06-04 18:57:57.930354,89376,8573,74.8,-4.8,89.5,0.2681,-0.1764,-0.0646,up-down
2024-06-04 18:57:57.940354,89376,8574,74.8,-5.0,89.5,0.2188,-0.1739,-0.0372,up-down
2024-06-04 18:57:57.950354,89376,8575,74.8,-5.3,89.4,0.1588,-0.1803,-0.0079,up-down
2024-06-04 18:57:57.960354,89376,8576,74.8,-5.7,89.3,0.0943,-0.2022,0.0227,up-down
2024-06-04 18:57:57.970354,89376,8577,74.8,-6.0,89.1,0.0294,-0.2179,0.0515,up-down
2024-06-04 18:57:57.980354,89384,8578,74.8,-6.4,88.9,-0.0325,-0.2115,0.075,up-down
2024-06-04 18:57:57.990354,89384,8579,74.8,-6.6,88.7,-0.0843,-0.1842,0.095,up-down
2024-06-04 18:57:58.000354,89384,8580,74.8,-6.8,88.4,-0.1239,-0.1368,0.1135,up-down
2024-06-04 18:57:58.010354,89384,8581,74.8,-6.9,88.0,-0.1629,-0.0772,0.1321,up-down
2024-06-04 18:57:58.020354,89384,8582,74.8,-6.8,87.7,-0.2098,-0.0128,0.1536,up-down
2024-06-04 18:57:58.030354,89384,8583,74.9,-6.7,87.4,-0.2708,0.0443,0.1809,up-down
2024-06-04 18:57:58.040354,89496,8584,73.3,3.6,67.7,-0.3407,0.0809,0.2166,up-down
2024-06-04 18:57:58.050354,89496,8585,73.2,3.7,67.5,-0.4017,0.1248,0.2561,up-down
2024-06-04 18:57:58.060354,89496,8586,73.2,3.8,67.4,-0.5467,0.1907,0.2776,up-down
2024-06-04 18:57:58.070354,89504,8587,73.2,4.0,67.2,-0.6224,0.1902,0.3088,up-down
2024-06-04 18:57:58.080354,89504,8588,73.1,4.1,67.0,-0.6981,0.22,0.3391,up-down
2024-06-04 18:57:58.090354,89504,8589,73.1,4.3,66.9,-0.8778,0.3192,0.3411,up-down
2024-06-04 18:57:58.100354,89504,8590,73.1,4.4,66.8,-1.015,0.347,0.3479,up-down
2024-06-04 18:57:58.110354,89504,8591,73.1,4.6,66.7,-1.1566,0.3587,0.3552,up-down
2024-06-04 18:57:58.120354,89504,8592,73.0,4.7,66.6,-1.2791,0.3851,0.3587,up-down
2024-06-04 18:57:58.130354,89504,8593,73.0,4.8,66.5,-1.4281,0.3978,0.3694,up-down
2024-06-04 18:57:58.140354,89512,8594,73.0,5.0,66.4,-1.6048,0.4158,0.3884,up-down
2024-06-04 18:57:58.150354,89512,8595,73.0,5.1,66.4,-1.7747,0.4505,0.4109,up-down
2024-06-04 18:57:58.160354,89512,8596,73.0,5.2,66.3,-1.9486,0.4632,0.4368,up-down
2024-06-04 18:57:58.170354,89624,8597,75.0,10.9,66.1,-2.1341,0.4378,0.4597,up-down
2024-06-04 18:57:58.180354,89624,8598,75.0,10.9,66.1,-2.3524,0.3641,0.4817,up-down
2024-06-04 18:57:58.190354,89624,8599,75.0,10.9,66.2,-2.4896,0.3138,0.4959,up-down
2024-06-04 18:57:58.200354,89624,8600,75.0,10.9,66.2,-2.5824,0.2444,0.5032,up-down
2024-06-04 18:57:58.210354,89624,8601,75.1,10.9,66.2,-2.6942,0.1556,0.509,up-down
2024-06-04 18:57:58.220354,89624,8602,75.1,10.9,66.3,-2.7659,0.1385,0.5105,up-down
2024-06-04 18:57:58.230354,89632,8603,75.1,10.8,66.4,-2.804,0.1468,0.5178,up-down
2024-06-04 18:57:58.240354,89632,8604,75.1,10.8,66.5,-2.8031,0.1736,0.5344,up-down
2024-06-04 18:57:58.250354,89632,8605,75.1,10.7,66.7,-2.7738,0.242,0.5505,up-down
2024-06-04 18:57:58.260354,89632,8606,75.1,10.7,66.8,-2.6771,0.3401,0.5579,up-down
2024-06-04 18:57:58.270354,89632,8607,75.1,10.7,67.0,-2.5159,0.4207,0.5515,up-down
2024-06-04 18:57:58.280354,89632,8608,75.1,10.7,67.1,-2.3284,0.4715,0.5325,up-down
2024-06-04 18:57:58.290354,89640,8609,75.1,10.7,67.3,-2.14,0.5184,0.5042,up-down
2024-06-04 18:57:58.300354,89744,8610,76.6,11.2,76.7,-1.9876,0.5589,0.4754,up-down
2024-06-04 18:57:58.310354,89752,8611,76.6,11.2,76.8,-1.8748,0.5692,0.4539,up-down
2024-06-04 18:57:58.320354,89752,8612,76.7,11.2,76.9,-1.7821,0.5545,0.4382,up-down
2024-06-04 18:57:58.330354,89752,8613,76.7,11.1,77.1,-1.7093,0.5203,0.4221,up-down
2024-06-04 18:57:58.340354,89752,8614,76.7,11.1,77.2,-1.6302,0.4725,0.4065,up-down
2024-06-04 18:57:58.350354,89752,8615,76.8,11.1,77.3,-1.5306,0.4075,0.3923,up-down
2024-06-04 18:57:58.360354,89752,8616,76.8,11.1,77.4,-1.4173,0.3436,0.3757,up-down
2024-06-04 18:57:58.370354,89752,8617,76.8,11.0,77.6,-1.2923,0.2918,0.3567,up-down
2024-06-04 18:57:58.380354,89760,8618,76.9,11.0,77.7,-1.1815,0.243,0.3333,up-down
2024-06-04 18:57:58.390354,89760,8619,76.9,10.9,77.8,-1.0677,0.1946,0.3103,up-down
2024-06-04 18:57:58.400354,89760,8620,76.9,10.8,77.9,-0.9324,0.1531,0.2859,up-down
2024-06-04 18:57:58.410354,89760,8621,76.9,10.8,78.0,-0.8128,0.1385,0.2527,up-down
2024-06-04 18:57:58.420354,89760,8622,76.9,10.7,78.1,-0.6707,0.1483,0.218,up-down
2024-06-04 18:57:58.430354,89872,8623,76.2,11.7,82.1,-0.5111,0.1688,0.1868,up-down
2024-06-04 18:57:58.440354,89872,8624,76.2,11.7,82.2,-0.4032,0.1653,0.157,up-down
2024-06-04 18:57:58.450354,89872,8625,76.2,11.7,82.2,-0.3231,0.1473,0.1223,up-down
2024-06-04 18:57:58.460354,89872,8626,76.2,11.8,82.2,-0.2308,0.1375,0.0828,up-down
2024-06-04 18:57:58.470354,89880,8627,76.2,12.0,82.3,-0.1395,0.1151,0.0437,up-down
2024-06-04 18:57:58.480354,89880,8628,76.2,12.2,82.4,-0.0584,0.0872,0.0066,up-down
2024-06-04 18:57:58.490354,89880,8629,76.3,12.5,82.6,0.0133,0.0516,-0.0255,up-down
2024-06-04 18:57:58.500354,89880,8630,76.4,12.6,82.9,0.0635,0.0023,-0.0538,up-down
2024-06-04 18:57:58.510354,89880,8631,76.4,12.5,83.1,0.0953,-0.0509,-0.0734,up-down
2024-06-04 18:57:58.520354,89880,8632,76.5,12.3,83.3,0.1187,-0.0977,-0.0841,up-down
2024-06-04 18:57:58.530354,89888,8633,76.5,12.1,83.4,0.1295,-0.1305,-0.088,up-down
2024-06-04 18:57:58.540354,89888,8634,76.5,11.8,83.6,0.1353,-0.1446,-0.0851,up-down
2024-06-04 18:57:58.550354,90000,8635,75.8,-14.3,94.4,0.1466,-0.1539,-0.0758,up-down
2024-06-04 18:57:58.560354,90000,8636,75.7,-14.7,94.5,0.1656,-0.1529,-0.0636,up-down
2024-06-04 18:57:58.570354,90000,8637,75.7,-15.0,94.6,0.1832,-0.1407,-0.0548,up-down
2024-06-04 18:57:58.580354,90000,8638,75.6,-15.3,94.7,0.1798,-0.1397,-0.0465,up-down
2024-06-04 18:57:58.590354,90000,8639,75.6,-15.6,94.7,0.1553,-0.13,-0.0348,up-down
2024-06-04 18:57:58.600354,90000,8640,75.6,-15.9,94.8,0.1343,-0.1148,-0.0182,up-down
2024-06-04 18:57:58.610354,90000,8641,75.6,-16.2,94.7,0.1182,-0.1143,0.0022,up-down
2024-06-04 18:57:58.620354,90008,8642,75.6,-16.6,94.6,0.085,-0.1109,0.0203,up-down
2024-06-04 18:57:58.630354,90008,8643,75.6,-16.9,94.4,0.043,-0.1085,0.0403,up-down
2024-06-04 18:57:58.640354,90008,8644,75.6,-17.2,94.1,0.0079,-0.1056,0.0628,up-down
2024-06-04 18:57:58.650354,90008,8645,75.7,-17.4,93.8,-0.0267,-0.0948,0.0828,up-down
2024-06-04 18:57:58.660354,90008,8646,75.8,-17.5,93.4,-0.0657,-0.0733,0.1028,up-down
2024-06-04 18:57:58.670354,90008,8647,75.9,-17.5,93.0,-0.1033,-0.0445,0.1282,up-down
2024-06-04 18:57:58.680354,90120,8648,77.9,-7.7,64.7,-0.1478,0.0018,0.1604,up-down
2024-06-04 18:57:58.690354,90120,8649,77.9,-7.5,64.4,-0.2083,0.0677,0.2005,up-down
2024-06-04 18:57:58.700354,90120,8650,77.9,-7.3,64.2,-0.2908,0.1297,0.2459,up-down
2024-06-04 18:57:58.710354,90128,8651,77.9,-7.1,64.0,-0.388,0.1829,0.2976,up-down
2024-06-04 18:57:58.720354,90128,8652,77.9,-6.9,63.9,-0.5277,0.2405,0.3269,up-down
2024-06-04 18:57:58.730354,90128,8653,77.8,-6.6,63.8,-0.6854,0.2664,0.3338,up-down
2024-06-04 18:57:58.740354,90128,8654,77.8,-6.4,63.6,-0.8094,0.2581,0.3416,up-down
2024-06-04 18:57:58.750354,90128,8655,77.7,-6.2,63.6,-0.9632,0.2733,0.3435,up-down
2024-06-04 18:57:58.760354,90128,8656,77.7,-5.9,63.5,-1.1278,0.3162,0.346,up-down
2024-06-04 18:57:58.770354,90136,8657,77.6,-5.7,63.4,-1.3231,0.3504,0.3513,up-down
2024-06-04 18:57:58.780354,90136,8658,77.5,-5.5,63.4,-1.5638,0.3631,0.3533,up-down
2024-06-04 18:57:58.790354,90136,8659,77.5,-5.3,63.4,-1.7699,0.3699,0.3528,up-down
2024-06-04 18:57:58.800354,90136,8660,77.4,-5.1,63.4,-1.9491,0.3968,0.3513,up-down
2024-06-04 18:57:58.810354,90248,8661,73.5,5.4,66.7,-2.1282,0.4495,0.3513,up-down
2024-06-04 18:57:58.820354,90248,8662,73.5,5.5,66.7,-2.3255,0.4803,0.3513,up-down
2024-06-04 18:57:58.830354,90248,8663,73.4,5.6,66.7,-2.5379,0.4588,0.3572,up-down
2024-06-04 18:57:58.840354,90248,8664,73.4,5.6,66.8,-2.6629,0.4695,0.3611,up-down
2024-06-04 18:57:58.850354,90248,8665,73.4,5.7,66.9,-2.7323,0.4715,0.3533,up-down
2024-06-04 18:57:58.860354,90256,8666,73.5,5.7,67.0,-2.7972,0.4105,0.3484,up-down
2024-06-04 18:57:58.870354,90256,8667,73.5,5.7,67.1,-2.8079,0.369,0.3528,up-down
2024-06-04 18:57:58.880354,90256,8668,73.5,5.7,67.2,-2.7918,0.3519,0.3616,up-down
2024-06-04 18:57:58.890354,90256,8669,73.5,5.7,67.3,-2.7357,0.3587,0.3713,up-down
2024-06-04 18:57:58.900354,90256,8670,73.5,5.7,67.5,-2.6468,0.3904,0.3826,up-down
2024-06-04 18:57:58.910354,90256,8671,73.5,5.7,67.6,-2.5506,0.4285,0.3899,up-down
2024-06-04 18:57:58.920354,90256,8672,73.5,5.7,67.8,-2.4105,0.4568,0.3909,up-down
2024-06-04 18:57:58.930354,90264,8673,73.6,5.7,68.0,-2.2352,0.4734,0.3875,up-down
2024-06-04 18:57:58.940354,90368,8674,75.6,7.2,78.1,-2.096,0.4803,0.3782,up-down
2024-06-04 18:57:58.950354,90376,8675,75.6,7.2,78.2,-1.9779,0.473,0.367,up-down
2024-06-04 18:57:58.960354,90376,8676,75.6,7.2,78.3,-1.8519,0.4568,0.3543,up-down
2024-06-04 18:57:58.970354,90376,8677,75.6,7.2,78.4,-1.7235,0.4324,0.3381,up-down
2024-06-04 18:57:58.980354,90376,8678,75.7,7.2,78.5,-1.5892,0.4061,0.3211,up-down
2024-06-04 18:57:58.990354,90376,8679,75.7,7.2,78.6,-1.4598,0.3792,0.3064,up-down
2024-06-04 18:57:59.000354,90376,8680,75.7,7.2,78.7,-1.3353,0.3538,0.2937,up-down
2024-06-04 18:57:59.010354,90384,8681,75.7,7.2,78.9,-1.2161,0.3328,0.282,up-down
2024-06-04 18:57:59.020354,90384,8682,75.7,7.1,79.0,-1.1199,0.3128,0.2688,up-down
2024-06-04 18:57:59.030354,90384,8683,75.8,7.1,79.1,-1.0199,0.2986,0.2542,up-down
2024-06-04 18:57:59.040354,90384,8684,75.8,7.1,79.2,-0.9105,0.2781,0.24,up-down
2024-06-04 18:57:59.050354,90384,8685,75.8,7.1,79.3,-0.7908,0.2693,0.2234,up-down
2024-06-04 18:57:59.060354,90384,8686,75.8,7.2,79.4,-0.6512,0.2776,0.2044,up-down
2024-06-04 18:57:59.070354,90496,8687,75.7,14.1,82.4,-0.5213,0.2747,0.1838,up-down
2024-06-04 18:57:59.080354,90496,8688,75.7,14.1,82.4,-0.4163,0.2645,0.1594,up-down
2024-06-04 18:57:59.090354,90496,8689,75.7,14.3,82.4,-0.3241,0.2547,0.1336,up-down
2024-06-04 18:57:59.100354,90504,8690,75.7,14.4,82.4,-0.2425,0.2391,0.1072,up-down
2024-06-04 18:57:59.110354,90504,8691,75.7,14.6,82.4,-0.1746,0.2147,0.0808,up-down
2024-06-04 18:57:59.120354,90504,8692,75.7,14.8,82.5,-0.1112,0.1795,0.0554,up-down
2024-06-04 18:57:59.130354,90504,8693,75.7,15.1,82.5,-0.057,0.136,0.0266,up-down
2024-06-04 18:57:59.140354,90504,8694,75.8,15.4,82.5,-0.0067,0.0906,-0.0021,up-down
2024-06-04 18:57:59.150354,90504,8695,75.8,15.7,82.7,0.0401,0.0491,-0.025,up-down
2024-06-04 18:57:59.160354,90504,8696,75.9,15.9,82.9,0.0797,0.0071,-0.0402,up-down
2024-06-04 18:57:59.170354,90512,8697,75.9,15.8,83.0,0.1197,-0.0411,-0.047,up-down
2024-06-04 18:57:59.180354,90512,8698,76.0,15.7,83.1,0.1529,-0.1002,-0.0509,up-down
2024-06-04 18:57:59.190354,90512,8699,76.0,15.5,83.2,0.1719,-0.1515,-0.0514,up-down
2024-06-04 18:57:59.200354,90624,8700,77.4,-8.3,86.5,0.1793,-0.1773,-0.0499,up-down
2024-06-04 18:57:59.210354,90624,8701,77.4,-8.6,86.5,0.1842,-0.2052,-0.0504,up-down
2024-06-04 18:57:59.220354,90624,8702,77.4,-9.0,86.5,0.1929,-0.2183,-0.0524,up-down
2024-06-04 18:57:59.230354,90624,8703,77.4,-9.3,86.5,0.2003,-0.2237,-0.0504,up-down
2024-06-04 18:57:59.240354,90624,8704,77.4,-9.6,86.5,0.1929,-0.2345,-0.0402,up-down
2024-06-04 18:57:59.250354,90624,8705,77.4,-10.0,86.5,0.1685,-0.2389,-0.026,up-down
2024-06-04 18:57:59.260354,90632,8706,77.4,-10.3,86.4,0.1373,-0.2428,-0.0079,up-down
2024-06-04 18:57:59.270354,90632,8707,77.4,-10.7,86.3,0.0997,-0.2418,0.0139,up-down
2024-06-04 18:57:59.280354,90632,8708,77.4,-11.1,86.1,0.0533,-0.2408,0.0413,up-down
2024-06-04 18:57:59.290354,90632,8709,77.4,-11.4,85.9,0.003,-0.2359,0.074,up-down
2024-06-04 18:57:59.300354,90632,8710,77.4,-11.7,85.7,-0.0428,-0.2169,0.1067,up-down
2024-06-04 18:57:59.310354,90632,8711,77.5,-11.9,85.4,-0.0721,-0.1832,0.136,up-down
2024-06-04 18:57:59.320354,90640,8712,77.5,-12.0,85.0,-0.0824,-0.1319,0.1585,up-down
2024-06-04 18:57:59.330354,90744,8713,78.4,-12.3,53.2,-0.0867,-0.0494,0.1736,up-down
2024-06-04 18:57:59.340354,90752,8714,78.4,-12.2,52.9,-0.0911,0.0521,0.1799,up-down
2024-06-04 18:57:59.350354,90752,8715,78.4,-11.9,52.7,-0.116,0.1536,0.1902,up-down
2024-06-04 18:57:59.360354,90752,8716,78.4,-11.6,52.5,-0.2288,0.2142,0.218,up-down
2024-06-04 18:57:59.370354,90752,8717,78.3,-11.3,52.3,-0.3802,0.2537,0.2605,up-down
2024-06-04 18:57:59.380354,90752,8718,78.3,-11.1,52.2,-0.6092,0.2669,0.3045,up-down
2024-06-04 18:57:59.390354,90752,8719,78.3,-10.9,52.2,-0.8958,0.2122,0.3523,up-down
2024-06-04 18:57:59.400354,90752,8720,78.2,-10.8,52.1,-1.1405,0.1463,0.4231,up-down
2024-06-04 18:57:59.410354,90760,8721,78.1,-10.6,52.1,-1.4539,0.1048,0.5061,up-down
2024-06-04 18:57:59.420354,90760,8722,78.1,-10.5,52.1,-1.8255,0.1136,0.5862,up-down
2024-06-04 18:57:59.430354,90760,8723,78.0,-10.4,52.1,-2.2059,0.1419,0.6487,up-down
2024-06-04 18:57:59.440354,90760,8724,77.9,-10.3,52.1,-2.5511,0.18,0.6804,up-down
2024-06-04 18:57:59.450354,90760,8725,77.8,-10.2,52.2,-2.8421,0.1942,0.6912,up-down
2024-06-04 18:57:59.460354,90872,8726,69.8,-1.0,62.4,-2.9525,0.3494,0.6643,up-down
2024-06-04 18:57:59.470354,90872,8727,69.8,-0.8,62.5,-2.9534,0.5374,0.6179,up-down
2024-06-04 18:57:59.480354,90872,8728,69.7,-0.7,62.6,-2.9544,0.5921,0.5755,up-down
2024-06-04 18:57:59.490354,90872,8729,69.7,-0.5,62.7,-2.8646,0.6458,0.5198,up-down
2024-06-04 18:57:59.500354,90880,8730,69.7,-0.4,62.8,-2.7381,0.6585,0.4675,up-down
2024-06-04 18:57:59.510354,90880,8731,69.7,-0.2,63.0,-2.6014,0.638,0.428,up-down
2024-06-04 18:57:59.520354,90880,8732,69.7,-0.1,63.2,-2.494,0.5838,0.4002,up-down
2024-06-04 18:57:59.530354,90880,8733,69.7,-0.1,63.3,-2.4305,0.511,0.3821,up-down
2024-06-04 18:57:59.540354,90880,8734,69.7,0.0,63.5,-2.3846,0.4422,0.3689,up-down
2024-06-04 18:57:59.550354,90880,8735,69.8,0.0,63.7,-2.3324,0.3802,0.3591,up-down
2024-06-04 18:57:59.560354,90888,8736,69.8,0.0,63.9,-2.262,0.3182,0.3552,up-down
2024-06-04 18:57:59.570354,90888,8737,69.8,0.0,64.1,-2.1619,0.2772,0.3513,up-down
2024-06-04 18:57:59.580354,91000,8738,72.6,1.4,77.0,-2.0384,0.2591,0.3425,up-down
2024-06-04 18:57:59.590354,91000,8739,72.7,1.4,77.2,-1.9144,0.2396,0.3294,up-down
2024-06-04 18:57:59.600354,91000,8740,72.7,1.4,77.3,-1.7918,0.2142,0.3152,up-down
2024-06-04 18:57:59.610354,91000,8741,72.7,1.4,77.4,-1.6746,0.1971,0.302,up-down
